~VERSION INFORMATION
VERS.      2.0   :CWLS LOG ASCII STANDARD--VERSION 2.0
WRAP.      NO    :ONE LINE PER DEPTH STEP
~WELL INFORMATION
#MNEM.UNIT              DATA          DESCRIPTION
#================================================
STRT.FT                        346.00000 :START DEPTH
STOP.FT                      12588.00000 :STOP DEPTH
STEP.FT                          0.50000 :STEP
NULL.                         -999.00000 :NULL VALUE
COMP.   Data output from TerraStation II         : COMPANY
WELL.   Kugrua 1                                 : WELL NAME
UWI.    50-163-20002                             : WELL UWI
API.    50-163-20002                             : WELL API
LOC.    8  14N  26W                              : WELL LOCATION
DATE.   NorthSlope.W33                           : WELL DATE
FLD.    No Project Selected                      : Project NAME
~CURVE INFORMATION
#================================================
M__DEPTH.FT                  :M__DEPTH
SP      .MV                  :SP
GR      .GAPI                :GR
CALI    .IN                  :CALI
BitSize .IN                  :BitSize
LL8     .OHMM                :LL8
ILM     .OHMM                :ILM
ILD     .OHMM                :ILD
RHOB    .G/CC                :RHOB
NPHI    .%                   :NPHI
DT      .US/F                :DT
MudWgt  .LBS/GAL             :MudWgt
~PARAMETER INFORMATION
#================================================
~OTHER INFORMATION
#================================================
~A
# ...
    6130.00000     -18.75347      58.88680      13.38480      12.25000      21.77880      18.24670      18.98670       2.45670      27.28500      82.90800      10.40000
    6130.50000     -18.83371      57.45730      13.38690      12.25000      23.69170      18.40030      19.14960       2.44140      27.91280      83.86640      10.40000
    6131.00000     -18.74144      57.19150      13.39630      12.25000      23.29620      18.55510      19.14750       2.42680      28.84610      83.42470      10.40000
    6131.50000     -18.66988      57.97280      13.42610      12.25000      22.48430      18.71130      19.14540       2.43130      29.47930      81.85470      10.40000
    6132.00000     -18.63472      59.35150      13.45840      12.25000      22.37590      18.86880      19.14330       2.44540      28.69640      80.59810      10.40000
    6132.50000     -18.09565      60.47340      13.48070      12.25000      22.60730      18.92170      19.21330       2.45940      27.34060      79.81370      10.40000
    6133.00000     -16.92819      59.69100      13.52600      12.25000      22.99800      18.97040      19.03130       2.45620      26.31260      80.04480      10.40000
    6133.50000     -14.86112      56.83620      13.59400      12.25000      22.74490      17.33470      18.10060       2.44570      26.13900      80.72800      10.40000
    6134.00000     -12.00496      53.98140      13.70330      12.25000      20.54550      15.38950      16.36870       2.45770      27.04430      81.53640      10.40000
    6134.50000      -9.75250      55.00780      13.75470      12.25000      18.11490      13.66260      14.40030       2.46110      27.62730      81.69150      10.40000
    6135.00000      -8.17003      58.21610      13.78170      12.25000      15.97190      12.12940      12.66850       2.46420      27.45170      82.33040      10.40000
    6135.50000      -6.86117      59.45450      13.82860      12.25000      13.54120      10.76830      11.14500       2.45670      27.91170      83.55270      10.40000
    6136.00000      -4.83910      61.32950      13.94650      12.25000      10.56840       9.61850       9.80470       2.45190      29.74120      85.50640      10.40000
    6136.50000      -3.17404      66.36600      14.08260      12.25000       9.15620       8.78670       8.62560       2.46090      31.91280      87.31460      10.40000
    6137.00000      -2.54248      70.42940      14.57910      12.25000       9.20060       8.02670       7.73540       2.47730      33.58480      88.82030      10.40000
    6137.50000      -2.16531      73.96200      14.33850      12.25000       9.02840       7.33250       7.36680       2.47350      34.22570      89.46600      10.40000
    6138.00000      -1.86635      74.59340      14.67190      12.25000       8.29310       6.87680       7.01560       2.46710      34.98620      89.97600      10.40000
    6138.50000      -1.56278      74.83690      15.01850      12.25000       8.02110       6.72400       6.68130       2.45290      35.33830      89.67850      10.40000
    6139.00000      -1.26152      75.25290      15.31660      12.25000       8.03150       6.59620       6.63510       2.43900      35.29730      89.16010      10.40000
    6139.50000      -0.93895      75.54710      15.25590      12.25000       8.13670       6.62030       6.65250       2.42010      34.98740      88.64200      10.40000
    6140.00000      -0.74509      74.51180      14.99940      12.25000       8.60540       6.64440       6.73930       2.43420      34.36600      87.68020      10.40000
    6140.50000      -0.62383      73.48410      14.86180      12.25000       8.87400       6.66870       6.92200       2.45020      32.35440      86.15170      10.40000
    6141.00000      -0.63906      72.75920      15.20360      12.25000       8.88970       6.86990       7.06070       2.45440      31.89860      84.59430      10.40000
    6141.50000      -0.68000      71.82040      15.20520      12.25000       8.90370       7.08480       7.19550       2.46050      31.78210      83.70450      10.40000
    6142.00000      -0.68463      70.03410      15.91560      12.25000       8.91770       7.30660       7.35010       2.46150      31.72640      82.59220      10.40000
    6142.50000      -0.67517      69.35820      15.86110      12.25000       8.92710       7.43720       7.50340       2.45490      31.46700      82.26760      10.40000
    6143.00000      -0.68730      69.47890      15.02970      12.25000       8.98440       7.45140       7.54850       2.45700      31.17600      82.78490      10.40000
    6143.50000      -0.78734      69.92000      14.85770      12.25000       8.95530       7.46570       7.57980       2.47010      31.23920      83.15320      10.40000
    6144.00000      -0.89238      70.28510      14.80750      12.25000       8.91310       7.48000       7.58730       2.45980      31.69800      83.65020      10.40000
    6144.50000      -0.92741      70.40110      14.88330      12.25000       8.88310       7.49440       7.62240       2.44120      32.24350      84.12800      10.40000
    6145.00000      -0.96585      70.36870      15.13920      12.25000       8.85320       7.50870       7.62710       2.42930      32.91620      84.26270      10.40000
    6145.50000      -0.99078      71.10300      14.85870      12.25000       8.81980       7.52310       7.61150       2.39930      33.24800      84.15200      10.40000
    6146.00000      -1.04942      72.86240      14.95610      12.25000       8.73840       7.53750       7.59590       2.38960      33.44100      84.01920      10.40000
    6146.50000      -1.21746      75.63110      15.44520      12.25000       8.64500       7.55200       7.58030       2.40300      33.71970      84.30000      10.40000
    6147.00000      -1.38609      75.85950      15.16310      12.25000       8.55270       7.56640       7.56480       2.40620      34.08210      84.84920      10.40000
    6147.50000      -1.40723      75.01080      15.56890      12.25000       8.39420       7.58090       7.54940       2.39840      34.29640      85.45600      10.40000
    6148.00000      -1.34196      74.05690      15.83270      12.25000       8.34470       7.59550       7.53390       2.38060      34.66790      85.51410      10.40000
    6148.50000      -1.28690      74.51950      15.76920      12.25000       8.29450       7.59560       7.51850       2.35500      35.60940      85.16690      10.40000
    6149.00000      -1.21383      74.52880      15.72460      12.25000       8.34680       7.55440       7.50310       2.34510      36.31120      84.93480      10.40000
    6149.50000      -1.11577      72.95170      15.56680      12.25000       8.42460       7.51330       7.48780       2.34730      36.52660      84.70270      10.40000
    6150.00000      -1.02740      69.37120      15.49360      12.25000       8.49510       7.47250       7.47250       2.34980      36.23880      84.73850      10.40000
    6150.50000      -0.92014      68.40990      15.41840      12.25000       8.56590       7.43190       7.45720       2.36810      35.84270      83.62740      10.40000
    6151.00000      -0.84148      68.28560      15.36110      12.25000       8.52970       7.39150       7.44190       2.39350      35.31610      82.87930      10.40000
    6151.50000      -0.87571      69.26060      14.99740      12.25000       8.47650       7.35130       7.45810       2.42130      34.81780      82.08100      10.40000
    6152.00000      -1.07325      72.51120      14.96080      12.25000       8.45790       7.32590       7.48280       2.43500      34.45230      83.03580      10.40000
    6152.50000      -1.09578      76.59640      15.14960      12.25000       8.43760       7.32060       7.50760       2.44150      34.46080      85.02300      10.40000
    6153.00000      -0.97032      76.90730      15.37150      12.25000       8.45290       7.31520       7.53250       2.43150      34.51790      84.89690      10.40000
    6153.50000      -0.81995      76.29320      15.41020      12.25000       8.47600       7.30980       7.55750       2.43050      34.53200      83.73480      10.40000
