~VERSION INFORMATION
VERS.      2.0   :CWLS LOG ASCII STANDARD--VERSION 2.0
WRAP.      NO    :ONE LINE PER DEPTH STEP
~WELL INFORMATION
#MNEM.UNIT              DATA          DESCRIPTION
#================================================
STRT.FT                        346.00000 :START DEPTH
STOP.FT                      12588.00000 :STOP DEPTH
STEP.FT                          0.50000 :STEP
NULL.                         -999.00000 :NULL VALUE
COMP.   Data output from TerraStation II         : COMPANY
WELL.   Kugrua 1                                 : WELL NAME
UWI.    50-163-20002                             : WELL UWI
API.    50-163-20002                             : WELL API
LOC.    8  14N  26W                              : WELL LOCATION
DATE.   NorthSlope.W33                           : WELL DATE
FLD.    No Project Selected                      : Project NAME
~CURVE INFORMATION
#================================================
M__DEPTH.FT                  :M__DEPTH
SP      .MV                  :SP
GR      .GAPI                :GR
CALI    .IN                  :CALI
BitSize .IN                  :BitSize
LL8     .OHMM                :LL8
ILM     .OHMM                :ILM
ILD     .OHMM                :ILD
RHOB    .G/CC                :RHOB
NPHI    .%                   :NPHI
DT      .US/F                :DT
MudWgt  .LBS/GAL             :MudWgt
~PARAMETER INFORMATION
#================================================
~OTHER INFORMATION
#================================================
~A
# ...
    7738.00000      -0.66774      52.38400      17.48490      12.25000       5.97570       4.30780       4.49440       1.81420      48.24340      84.54850      11.60000
    7738.50000      -0.81260      52.22800      17.49890      12.25000       6.10200       4.35570       4.51350       1.79520      47.86320      84.13920      11.60000
    7739.00000      -0.81656      52.16420      17.52610      12.25000       6.11350       4.40780       4.57300       1.78930      48.38170      85.44380      11.60000
    7739.50000      -0.82042      52.34560      17.53880      12.25000       6.16280       4.46040       4.59970       1.79440      48.75700      87.34810      11.60000
    7740.00000      -0.83029      53.12000      17.52540      12.25000       6.33930       4.51370       4.65300       1.81940      47.60840      88.42760      11.60000
    7740.50000      -0.85865      53.65050      17.51450      12.25000       6.50320       4.56760       4.68790       1.84290      46.72680      90.84250      11.60000
    7741.00000      -0.85061      53.63140      17.50720      12.25000       6.52250       4.59270       4.68690       1.86620      46.90630      93.34150      11.60000
    7741.50000      -0.81937      53.58280      17.51820      12.25000       6.45130       4.59820       4.69190       1.88410      47.24590      94.17680      11.60000
    7742.00000      -0.76413      54.42970      17.52180      12.25000       6.44740       4.60380       4.67030       1.89330      47.58560      92.14770      11.60000
    7742.50000      -0.76789      55.30670      17.51910      12.25000       6.48580       4.60930       4.75070       1.88200      47.92530      88.95760      11.60000
    7743.00000      -0.89585      55.40960      17.51640      12.25000       6.51230       4.61490       4.75010       1.87320      47.34620      88.46690      11.60000
    7743.50000      -1.04261      54.71410      17.51280      12.25000       6.59520       4.62050       4.76510       1.87450      46.67540      89.05140      11.60000
    7744.00000      -1.19617      53.76450      17.50920      12.25000       6.66650       4.62600       4.78500       1.89230      45.90060      91.05740      11.60000
    7744.50000      -1.29823      52.66890      17.52030      12.25000       6.68520       4.63160       4.79140       1.91440      45.09550      91.91290      11.60000
    7745.00000      -1.34359      51.21450      17.54450      12.25000       6.64920       4.63740       4.80330       1.93340      43.94500      89.89690      11.60000
    7745.50000      -1.36215      50.49570      17.53360      12.25000       6.61820       4.66110       4.83330       1.93080      43.14290      87.27890      11.60000
    7746.00000      -1.34981      51.77940      17.52500      12.25000       6.70500       4.68480       4.85810       1.92490      43.18300      83.16460      11.60000
    7746.50000      -1.37087      53.30750      17.51790      12.25000       6.81900       4.70870       4.86940       1.92080      43.45150      84.07310      11.60000
    7747.00000      -1.36003      53.52360      17.50220      12.25000       6.81580       4.73280       4.90650       1.90750      43.61520      86.80340      11.60000
    7747.50000      -1.33729      53.20810      17.48290      12.25000       6.72470       4.75690       5.04490       1.89970      44.26810      86.88980      11.60000
    7748.00000      -1.24585      53.76170      17.45380      12.25000       6.84860       4.78120       5.21480       1.94290      43.82320      87.03870      11.60000
    7748.50000      -1.16031      54.78630      16.13190      12.25000       7.06710       4.84460       5.39040       2.02810      42.46000      87.35640      11.60000
    7749.00000      -1.13047      54.82700      13.46670      12.25000       7.35390       4.91010       5.53040       2.09110      42.23930      87.69750      11.60000
    7749.50000      -1.17264      54.05840      13.65940      12.25000       7.60760       5.01350       5.65960       2.15320      41.60880      87.99420      11.60000
    7750.00000      -1.23569      53.43170      14.12600      12.25000       7.72560       5.13200       5.88340       2.21540      41.10290      87.92880      11.60000
    7750.50000      -1.26096      54.16420      14.56670      12.25000       7.84350       5.24910       6.08850       2.22450      42.57430      88.37360      11.60000
    7751.00000      -1.27112      56.04460      16.45280      12.25000       7.98250       5.36820       6.32470       2.13530      43.95560      88.10860      11.60000
    7751.50000      -1.31978      58.17240      17.48850      12.25000       8.21650       5.50040       6.51640       2.04600      45.17190      87.41030      11.60000
    7752.00000      -1.37284      59.44870      17.51150      12.25000       8.59090       5.73350       6.70840       1.96320      45.65960      87.17330      11.60000
    7752.50000      -1.42630      59.69450      17.51620      12.25000       8.87890       5.90140       6.87420       1.91110      45.59540      86.83790      11.60000
    7753.00000      -1.48206      59.14280      17.51110      12.25000       9.06420       5.98930       7.02490       1.87790      45.84130      86.45000      11.60000
    7753.50000      -1.53722      57.99600      17.50950      12.25000       9.10060       5.99490       7.13270       1.85980      46.46780      87.14440      11.60000
    7754.00000      -1.64178      56.72520      17.40800      12.25000       9.10270       5.98750       7.18940       1.87260      45.36320      88.58670      11.60000
    7754.50000      -1.76484      56.21880      17.24450      12.25000       9.14510       5.95200       7.16390       1.90220      42.87810      89.80820      11.60000
    7755.00000      -1.84030      56.59860      17.42300      12.25000       9.25010       5.85350       7.04010       1.89410      41.92980      90.23180      11.60000
    7755.50000      -1.90806      57.25670      17.49910      12.25000       9.07220       5.75950       6.99820       1.89300      43.54890      90.79780      11.60000
    7756.00000      -1.91702      57.25440      17.49930      12.25000       8.79780       5.62350       6.94210       1.90830      43.08650      90.38510      11.60000
    7756.50000      -1.93848      55.94790      17.50380      12.25000       8.59750       5.59350       6.91630       1.87870      42.74880      89.24160      11.60000
    7757.00000      -1.94104      54.50560      17.43190      12.25000       8.56680       5.62330       6.81620       1.84340      42.63500      88.23580      11.60000
    7757.50000      -1.97120      55.12600      17.32840      12.25000       8.59850       5.63000       6.70240       1.81580      42.32750      88.40550      11.60000
    7758.00000      -2.01436      57.46100      17.39820      12.25000       8.59530       5.62290       6.63950       1.82150      41.38860      89.07600      11.60000
    7758.50000      -2.05302      59.63550      17.46160      12.25000       8.57100       5.62690       6.62210       1.84130      40.37560      88.87930      11.60000
    7759.00000      -1.98158      60.11710      17.10830      12.25000       8.58100       5.61880       6.58690       1.84770      40.49820      88.56970      11.60000
    7759.50000      -1.87975      60.42560      17.10620      12.25000       8.61180       5.59640       6.57670       1.85980      40.66600      88.78310      11.60000
    7760.00000      -1.80271      60.39300      16.91890      12.25000       8.57110       5.52660       6.57830       1.88430      41.00610      88.23150      11.60000
    7760.50000      -1.74097      59.70920      17.33230      12.25000       8.35470       5.49240       6.56410       1.89230      41.12700      89.29640      11.60000
    7761.00000      -1.72093      58.90980      17.56560      12.25000       8.16940       5.50570       6.56850       1.96770      41.18020      91.24890      11.60000
    7761.50000      -1.70209      57.88620      17.47360      12.25000       8.12810       5.54190       6.53520       2.03630      40.49940      91.81870      11.60000
