~VERSION INFORMATION
VERS.      2.0   :CWLS LOG ASCII STANDARD--VERSION 2.0
WRAP.      NO    :ONE LINE PER DEPTH STEP
~WELL INFORMATION
#MNEM.UNIT              DATA          DESCRIPTION
#================================================
STRT.FT                        346.00000 :START DEPTH
STOP.FT                      12588.00000 :STOP DEPTH
STEP.FT                          0.50000 :STEP
NULL.                         -999.00000 :NULL VALUE
COMP.   Data output from TerraStation II         : COMPANY
WELL.   Kugrua 1                                 : WELL NAME
UWI.    50-163-20002                             : WELL UWI
API.    50-163-20002                             : WELL API
LOC.    8  14N  26W                              : WELL LOCATION
DATE.   NorthSlope.W33                           : WELL DATE
FLD.    No Project Selected                      : Project NAME
~CURVE INFORMATION
#================================================
M__DEPTH.FT                  :M__DEPTH
SP      .MV                  :SP
GR      .GAPI                :GR
CALI    .IN                  :CALI
BitSize .IN                  :BitSize
LL8     .OHMM                :LL8
ILM     .OHMM                :ILM
ILD     .OHMM                :ILD
RHOB    .G/CC                :RHOB
NPHI    .%                   :NPHI
DT      .US/F                :DT
MudWgt  .LBS/GAL             :MudWgt
~PARAMETER INFORMATION
#================================================
~OTHER INFORMATION
#================================================
~A
# ...
     490.00000    -999.00000    -999.00000    -999.00000      17.50000    -999.00000    -999.00000    -999.00000    -999.00000    -999.00000    -999.00000       9.70000
     490.50000    -999.00000    -999.00000    -999.00000      17.50000    -999.00000    -999.00000    -999.00000    -999.00000    -999.00000    -999.00000       9.70000
     491.00000    -999.00000    -999.00000    -999.00000      17.50000    -999.00000    -999.00000    -999.00000    -999.00000    -999.00000    -999.00000       9.70000
     491.50000    -999.00000    -999.00000    -999.00000      17.50000    -999.00000    -999.00000    -999.00000    -999.00000    -999.00000    -999.00000       9.70000
     492.00000    -999.00000    -999.00000    -999.00000      17.50000    -999.00000    -999.00000    -999.00000    -999.00000    -999.00000    -999.00000       9.70000
     492.50000    -999.00000    -999.00000    -999.00000      17.50000    -999.00000    -999.00000    -999.00000    -999.00000    -999.00000    -999.00000       9.70000
     493.00000       7.46520    -999.00000    -999.00000      17.50000    -999.00000    -999.00000    -999.00000    -999.00000    -999.00000    -999.00000       9.70000
     493.50000       0.00000    -999.00000    -999.00000      17.50000    -999.00000    -999.00000    -999.00000    -999.00000    -999.00000    -999.00000       9.70000
     494.00000      -6.27710    -999.00000    -999.00000      17.50000    -999.00000    -999.00000    -999.00000    -999.00000    -999.00000    -999.00000       9.70000
     494.50000      -9.07690    -999.00000    -999.00000      17.50000    -999.00000    -999.00000    -999.00000    -999.00000    -999.00000    -999.00000       9.70000
     495.00000     -10.77490    -999.00000    -999.00000      17.50000    -999.00000    -999.00000    -999.00000    -999.00000    -999.00000    -999.00000       9.70000
     495.50000     -12.08900    -999.00000    -999.00000      17.50000    -999.00000    -999.00000    -999.00000    -999.00000    -999.00000    -999.00000       9.70000
     496.00000     -13.08400    -999.00000    -999.00000      17.50000    -999.00000    -999.00000    -999.00000    -999.00000    -999.00000    -999.00000       9.70000
     496.50000     -13.98980    -999.00000    -999.00000      17.50000    -999.00000    -999.00000    -999.00000    -999.00000    -999.00000    -999.00000       9.70000
     497.00000     -14.60910    -999.00000    -999.00000      17.50000    -999.00000       3.88040    -999.00000    -999.00000    -999.00000    -999.00000       9.70000
     497.50000     -14.69630    -999.00000    -999.00000      17.50000    -999.00000       4.48710      20.87570    -999.00000    -999.00000    -999.00000       9.70000
     498.00000     -14.06530    -999.00000    -999.00000      17.50000       9.95470       5.18870      29.27710    -999.00000    -999.00000    -999.00000       9.70000
     498.50000     -13.03530    -999.00000    -999.00000      17.50000      10.49540       6.18770      14.18750    -999.00000    -999.00000    -999.00000       9.70000
     499.00000     -11.33600    -999.00000    -999.00000      17.50000      10.21300       6.11290       9.67160    -999.00000    -999.00000    -999.00000       9.70000
     499.50000      -9.52690    -999.00000    -999.00000      17.50000       9.63710       5.96670       8.99480    -999.00000    -999.00000    -999.00000       9.70000
     500.00000      -6.41090    -999.00000    -999.00000      17.50000       9.09380       6.09820       8.36540    -999.00000    -999.00000     110.17780       9.70000
     500.50000      -2.82710    -999.00000    -999.00000      17.50000       8.99720       6.27500       8.84460    -999.00000    -999.00000     112.55060       9.70000
     501.00000      -0.70900    -999.00000    -999.00000      17.50000       9.23370       6.39660      10.17550    -999.00000    -999.00000     113.20930       9.70000
     501.50000       0.58210    -999.00000    -999.00000      17.50000       9.47640       6.43910      11.86470    -999.00000    -999.00000     114.81900       9.70000
     502.00000       1.00980    -999.00000    -999.00000      17.50000       9.48000       6.27500      13.40550    -999.00000    -999.00000     117.11860       9.70000
     502.50000       0.99060    -999.00000    -999.00000      17.50000       9.30800       5.97050      12.99140    -999.00000    -999.00000     119.55780       9.70000
     503.00000       1.20690    -999.00000    -999.00000      17.50000       9.13920       5.93300      12.45110    -999.00000    -999.00000     122.45290       9.70000
     503.50000       1.47780    -999.00000    -999.00000      17.50000       8.97340       5.95910      11.72050    -999.00000    -999.00000     124.22250       9.70000
     504.00000       1.56700    -999.00000    -999.00000      17.50000       8.81060       6.00600      11.25950    -999.00000    -999.00000     123.71150       9.70000
     504.50000       1.26020    -999.00000    -999.00000      17.50000       8.65080       6.03520      11.03850    -999.00000    -999.00000     122.61140       9.70000
     505.00000       0.69220    -999.00000    -999.00000      17.50000       8.58950       6.06890      10.94320    -999.00000    -999.00000     119.92590       9.70000
     505.50000       0.35440    -999.00000    -999.00000      17.50000       8.54480       6.14160      10.86490    -999.00000    -999.00000     117.48690       9.70000
     506.00000       1.31640    -999.00000    -999.00000      17.50000       8.50050       6.35830      10.79730    -999.00000    -999.00000     115.34430       9.70000
     506.50000       3.44890    -999.00000    -999.00000      17.50000       8.45630       6.50330      10.40450    -999.00000    -999.00000     115.00430       9.70000
     507.00000       6.57720    -999.00000    -999.00000      17.50000       8.41240       6.64520       9.99950    -999.00000    -999.00000     116.01810       9.70000
     507.50000       9.05920      43.84590    -999.00000      17.50000       8.36870       6.56320       9.61600    -999.00000    -999.00000     116.50720       9.70000
     508.00000      10.87390      44.29430    -999.00000      17.50000       8.32530       6.41300       9.31470    -999.00000    -999.00000     118.18130       9.70000
     508.50000      11.98740      44.78360    -999.00000      17.50000       8.23600       6.26610       9.02300    -999.00000    -999.00000     122.57680       9.70000
     509.00000      12.79860      45.39650    -999.00000      17.50000       8.13330       6.06340       8.74030    -999.00000    -999.00000     129.62230       9.70000
     509.50000      13.18890      46.51260    -999.00000      17.50000       7.95560       5.85010       8.46650    -999.00000    -999.00000     157.65630       9.70000
     510.00000      13.20840      48.51250    -999.00000      17.50000       7.74260       5.69700       8.53310    -999.00000    -999.00000     168.46671       9.70000
     510.50000      13.09960      50.62620    -999.00000      17.50000       7.61060       5.67340       8.66990    -999.00000    -999.00000     178.40250       9.70000
     511.00000      12.65770      51.52370    -999.00000      17.50000       7.60090       5.89000       9.29270    -999.00000    -999.00000     182.57750       9.70000
     511.50000      12.09900      52.61440    -999.00000      17.50000       7.84970       6.66190      10.00190    -999.00000    -999.00000     182.41060       9.70000
     512.00000      11.61850      53.68790    -999.00000      17.50000      10.62010       7.56780      10.76520    -999.00000    -999.00000     190.77859       9.70000
     512.50000      11.28360      54.57830    -999.00000      17.50000      14.45330       8.59700      11.58680    -999.00000    -999.00000     173.37610       9.30000
     513.00000      10.92120      54.85140    -999.00000      17.50000      15.06070       8.76520      12.47110    -999.00000    -999.00000     170.44720       9.30000
     513.50000      10.50420      53.74180    -999.00000      17.50000      13.74120       8.63600      13.42290    -999.00000    -999.00000     169.57201       9.30000
