~VERSION INFORMATION
VERS.      2.0   :CWLS LOG ASCII STANDARD--VERSION 2.0
WRAP.      NO    :ONE LINE PER DEPTH STEP
~WELL INFORMATION
#MNEM.UNIT              DATA          DESCRIPTION
#================================================
STRT.FT                        346.00000 :START DEPTH
STOP.FT                      12588.00000 :STOP DEPTH
STEP.FT                          0.50000 :STEP
NULL.                         -999.00000 :NULL VALUE
COMP.   Data output from TerraStation II         : COMPANY
WELL.   Kugrua 1                                 : WELL NAME
UWI.    50-163-20002                             : WELL UWI
API.    50-163-20002                             : WELL API
LOC.    8  14N  26W                              : WELL LOCATION
DATE.   NorthSlope.W33                           : WELL DATE
FLD.    No Project Selected                      : Project NAME
~CURVE INFORMATION
#================================================
M__DEPTH.FT                  :M__DEPTH
SP      .MV                  :SP
GR      .GAPI                :GR
CALI    .IN                  :CALI
BitSize .IN                  :BitSize
LL8     .OHMM                :LL8
ILM     .OHMM                :ILM
ILD     .OHMM                :ILD
RHOB    .G/CC                :RHOB
NPHI    .%                   :NPHI
DT      .US/F                :DT
MudWgt  .LBS/GAL             :MudWgt
~PARAMETER INFORMATION
#================================================
~OTHER INFORMATION
#================================================
~A
# ...
    3706.00000      -1.79075      72.30600      13.87340      12.25000       9.52070       8.32540       8.64390       2.53780      33.10530      90.80260       9.50000
    3706.50000      -1.79969      72.49340      13.85990      12.25000       9.96880       8.37460       8.76820       2.54180      34.64040      90.10750       9.50000
    3707.00000      -1.81024      72.54920      13.77090      12.25000      10.57430       8.42420       8.92090       2.55330      34.76170      89.90460       9.50000
    3707.50000      -1.83049      72.66630      13.64880      12.25000      11.04440       8.56980       9.07620       2.56430      34.10200      90.38340       9.50000
    3708.00000      -1.86834      72.63190      13.61260      12.25000      11.18850       8.74400       9.21160       2.55970      32.27550      90.71870       9.50000
    3708.50000      -1.89778      71.68140      13.59910      12.25000      11.09500       8.92170       9.30420       2.55450      30.22810      90.74780       9.50000
    3709.00000      -1.94553      68.86800      13.64000      12.25000      10.83310       9.03080       9.39770       2.54190      28.80700      91.21620       9.50000
    3709.50000      -2.07078      66.54110      13.70820      12.25000      10.67890       9.08140       9.48480       2.53210      28.35250      91.72980       9.50000
    3710.00000      -2.36203      65.83180      13.77640      12.25000      10.77710       9.13220       9.52850       2.52710      28.83310      91.30870       9.50000
    3710.50000      -2.64878      68.39510      13.84460      12.25000      10.99280       9.18330       9.50670       2.51050      29.97660      90.82740       9.50000
    3711.00000      -2.73992      71.46690      13.87920      12.25000      11.15030       9.23470       9.43020       2.50260      31.53030      91.34010       9.50000
    3711.50000      -2.74597      74.03330      13.84520      12.25000      11.14370       9.14370       9.29330       2.49620      32.20450      92.48570       9.50000
    3712.00000      -2.64872      75.28360      13.81120      12.25000      10.91880       8.93200       9.15230       2.50230      31.78380      93.86670       9.50000
    3712.50000      -2.53737      76.08620      13.82120      12.25000      10.51560       8.72530       8.97360       2.51810      31.32220      94.70580       9.50000
    3713.00000      -2.46022      76.53430      13.88890      12.25000      10.01070       8.52330       8.79840       2.53060      31.51120      94.44670       9.50000
    3713.50000      -2.41286      76.47160      13.85090      12.25000       9.53000       8.32600       8.62660       2.53380      32.18020      93.92300       9.50000
    3714.00000      -2.41961      76.45110      13.81920      12.25000       9.13960       8.13330       8.45820       2.53890      33.28440      93.76550       9.50000
    3714.50000      -2.40806      76.55340      13.86090      12.25000       9.32530       7.94500       8.29300       2.54430      33.99700      93.90370       9.50000
    3715.00000      -2.32951      76.61880      13.90180      12.25000       9.48250       7.76110       8.13110       2.54570      34.08530      94.12140       9.50000
    3715.50000      -2.33735      76.45560      13.94260      12.25000       9.41750       7.58150       7.97230       2.55260      33.82640      94.22820       9.50000
    3716.00000      -2.35170      76.16170      13.87590      12.25000       9.36600       7.70690       7.94630       2.58330      33.61560      94.04040       9.50000
    3716.50000      -2.27215      75.85030      13.81950      12.25000       9.39170       7.84170       8.10390       2.61030      33.40130      93.08940       9.50000
    3717.00000      -2.26780      75.38710      13.83250      12.25000       9.64990       7.97870       8.26460       2.60650      33.46190      92.28740       9.50000
    3717.50000      -2.26335      74.98120      13.90450      12.25000       9.84100       8.11820       8.42850       2.58550      33.67010      92.09940       9.50000
    3718.00000      -2.21819      74.59170      13.97690      12.25000      10.02120       8.26010       8.57170       2.56750      33.84410      92.84260       9.50000
    3718.50000      -2.11104      73.32680      13.91700      12.25000      10.17400       8.40450       8.70700       2.54660      33.79170      93.30140       9.50000
    3719.00000      -2.10529      71.65010      13.75400      12.25000      10.27010       8.55140       8.82810       2.53800      33.35240      93.23600       9.50000
    3719.50000      -2.12884      71.50790      13.59100      12.25000      10.32020       8.70080       8.91300       2.52390      33.37220      93.10420       9.50000
    3720.00000      -2.23418      72.64060      13.49660      12.25000      10.36400       8.81480       8.90380       2.50820      34.04760      92.70850       9.50000
    3720.50000      -2.19393      73.28970      13.59050      12.25000      10.23980       8.75910       8.88570       2.50140      34.27530      92.22300       9.50000
    3721.00000      -2.14808      73.68580      13.68440      12.25000      10.05580       8.70370       8.82460       2.49490      34.50900      92.03290       9.50000
    3721.50000      -2.10563      74.14390      13.77830      12.25000       9.93710       8.64870       8.82600       2.49660      34.70810      91.70520       9.50000
    3722.00000      -2.02098      74.41260      13.87220      12.25000       9.98140       8.59400       8.82740       2.50780      34.37280      91.26030       9.50000
    3722.50000      -1.96932      74.45140      13.96610      12.25000      10.06600       8.53960       8.82880       2.51580      33.87570      91.10720       9.50000
    3723.00000      -1.98597      74.43510      14.01690      12.25000      10.15130       8.48560       8.83020       2.51610      33.76340      91.50320       9.50000
    3723.50000      -1.99162      74.56470      14.01700      12.25000      10.18820       8.43190       8.83160       2.51070      33.52910      92.13110       9.50000
    3724.00000      -2.05267      74.60580      13.98000      12.25000      10.06170       8.40080       8.83300       2.51660      33.41920      92.56280       9.50000
    3724.50000      -2.05261      74.30220      13.91970      12.25000       9.95520       8.47520       8.83440       2.50760      33.85590      93.12800       9.50000
    3725.00000      -1.99776      72.79670      13.86280      12.25000       9.84990       8.55020       8.84860       2.50540      34.46870      93.35240       9.50000
    3725.50000      -1.90751      71.96090      13.87080      12.25000       9.89310       8.62590       8.90540       2.51420      34.49660      93.36760       9.50000
    3726.00000      -1.92296      71.73430      13.89440      12.25000      10.55420       8.70230       8.96260       2.51750      33.88850      93.53870       9.50000
    3726.50000      -1.86631      71.79910      13.91290      12.25000      10.77870       8.77940       9.02010       2.52370      33.07770      93.43970       9.50000
    3727.00000      -1.84485      72.44330      13.66660      12.25000      10.59710       8.85710       9.15240       2.54530      31.34360      93.27470       9.50000
    3727.50000      -1.82450      73.82260      13.53290      12.25000      10.60390       8.93550       9.30660       2.56260      29.64570      93.72350       9.50000
    3728.00000      -1.82035      74.58340      13.47260      12.25000      10.88550       9.01860       9.41150       2.56280      29.07260      94.24370       9.50000
    3728.50000      -1.84040      74.84620      13.53370      12.25000      11.17210       9.12890       9.51760       2.56480      29.74830      93.98320       9.50000
    3729.00000      -1.86694      74.92340      13.57490      12.25000      11.29770       9.24060       9.62480       2.56640      30.80720      92.92720       9.50000
    3729.50000      -1.86909      75.15050      13.61160      12.25000      11.41450       9.35370       9.70790       2.56640      31.26140      92.18850       9.50000
