~VERSION INFORMATION
VERS.      2.0   :CWLS LOG ASCII STANDARD--VERSION 2.0
WRAP.      NO    :ONE LINE PER DEPTH STEP
~WELL INFORMATION
#MNEM.UNIT              DATA          DESCRIPTION
#================================================
STRT.FT                        346.00000 :START DEPTH
STOP.FT                      12588.00000 :STOP DEPTH
STEP.FT                          0.50000 :STEP
NULL.                         -999.00000 :NULL VALUE
COMP.   Data output from TerraStation II         : COMPANY
WELL.   Kugrua 1                                 : WELL NAME
UWI.    50-163-20002                             : WELL UWI
API.    50-163-20002                             : WELL API
LOC.    8  14N  26W                              : WELL LOCATION
DATE.   NorthSlope.W33                           : WELL DATE
FLD.    No Project Selected                      : Project NAME
~CURVE INFORMATION
#================================================
M__DEPTH.FT                  :M__DEPTH
SP      .MV                  :SP
GR      .GAPI                :GR
CALI    .IN                  :CALI
BitSize .IN                  :BitSize
LL8     .OHMM                :LL8
ILM     .OHMM                :ILM
ILD     .OHMM                :ILD
RHOB    .G/CC                :RHOB
NPHI    .%                   :NPHI
DT      .US/F                :DT
MudWgt  .LBS/GAL             :MudWgt
~PARAMETER INFORMATION
#================================================
~OTHER INFORMATION
#================================================
~A
# ...
    8530.00000       1.05990      63.12090      12.83090      12.25000       4.57380       3.10510       3.26920       2.50420      28.96150      85.97400      12.10000
    8530.50000       1.07464      63.11660      13.00930      12.25000       4.65090       3.18340       3.35500       2.49470      29.58550      87.27660      12.10000
    8531.00000       1.13087      63.36550      13.33000      12.25000       4.93490       3.26370       3.40770       2.49900      30.45170      87.71010      12.10000
    8531.50000       1.23971      63.71140      13.69430      12.25000       5.12280       3.31970       3.44220       2.50300      31.31790      87.83600      12.10000
    8532.00000       1.32544      63.97300      13.31440      12.25000       5.09970       3.33640       3.44470       2.50380      32.35580      87.88960      12.10000
    8532.50000       1.37887      63.97400      13.02390      12.25000       4.86390       3.35320       3.44270       2.49630      32.86300      87.95760      12.10000
    8533.00000       1.41501      63.94320      13.07100      12.25000       4.60700       3.31920       3.42610       2.48390      32.80780      88.35140      12.10000
    8533.50000       1.38934      64.02060      13.11230      12.25000       4.54150       3.25100       3.38150       2.49080      32.60380      88.74070      12.10000
    8534.00000       1.36947      64.16810      13.16520      12.25000       4.59010       3.18420       3.33000       2.50380      32.56860      88.73550      12.10000
    8534.50000       1.41311      64.26930      13.31930      12.25000       4.63490       3.11880       3.26250       2.50400      32.86730      88.47310      12.10000
    8535.00000       1.51754      64.01940      13.22390      12.25000       4.57410       3.05470       3.19490       2.49720      33.01810      88.43300      12.10000
    8535.50000       1.57277      63.05030      13.24140      12.25000       4.45260       2.99190       3.13120       2.48450      32.73810      88.48030      12.10000
    8536.00000       1.53861      61.77620      13.31080      12.25000       4.38500       2.94320       3.09150       2.48570      31.96120      88.44160      12.10000
    8536.50000       1.44214      61.38720      13.26720      12.25000       4.38190       2.92960       3.06060       2.49330      31.30220      88.46350      12.10000
    8537.00000       1.39007      61.42610      13.26140      12.25000       4.41210       2.91610       3.03620       2.48570      31.16220      88.88380      12.10000
    8537.50000       1.34431      61.50650      13.27380      12.25000       4.41850       2.90260       3.01600       2.45880      31.26950      89.21630      12.10000
    8538.00000       1.34404      61.36740      13.20950      12.25000       4.39180       2.88920       3.00020       2.43770      31.42770      89.28590      12.10000
    8538.50000       1.35488      60.96920      13.15670      12.25000       4.35790       2.87580       2.98950       2.43670      31.40490      89.29440      12.10000
    8539.00000       1.33731      60.28650      13.11870      12.25000       4.35530       2.86260       2.98490       2.43540      30.78460      89.15080      12.10000
    8539.50000       1.28954      59.36520      13.09040      12.25000       4.37360       2.87870       2.99390       2.44190      30.14400      88.45710      12.10000
    8540.00000       1.13747      58.39860      13.19120      12.25000       4.35700       2.89870       3.01550       2.45900      29.16390      88.52970      12.10000
    8540.50000       0.98651      57.43200      13.29210      12.25000       4.34700       2.91890       3.04990       2.47740      29.42240      88.93170      12.10000
    8541.00000       1.08635      57.99440      13.30700      12.25000       4.46930       2.95770       3.10060       2.49840      29.60190      89.18820      12.10000
    8541.50000       1.24238      58.67240      13.27250      12.25000       4.64290       2.99830       3.15610       2.48900      29.77120      89.43360      12.10000
    8542.00000       1.34501      59.35040      13.24270      12.25000       4.75380       3.03940       3.21250       2.48010      30.21500      89.81720      12.10000
    8542.50000       1.36324      59.96720      13.24430      12.25000       4.81350       3.08110       3.27000       2.49840      31.02960      90.49830      12.10000
    8543.00000       1.39268      60.37350      13.35020      12.25000       4.79980       3.12340       3.32850       2.50990      31.58570      90.88260      12.10000
    8543.50000       1.43981      62.25400      13.50420      12.25000       4.73290       3.13950       3.36590       2.49950      32.23070      91.30350      12.10000
    8544.00000       1.51634      65.34360      13.50560      12.25000       4.52890       3.08370       3.28870       2.50120      32.87580      91.47260      12.10000
    8544.50000       1.60108      66.90530      13.45010      12.25000       4.38380       3.02900       3.21330       2.51060      33.24480      91.42790      12.10000
    8545.00000       1.59081      67.31210      13.39460      12.25000       4.37410       2.97520       3.13960       2.51360      32.48920      91.19090      12.10000
    8545.50000       1.56494      67.03450      13.41270      12.25000       4.31650       2.92240       3.06760       2.49210      31.21630      91.16680      12.10000
    8546.00000       1.61308      66.46210      13.40110      12.25000       4.23570       2.87050       2.99730       2.48610      31.24320      92.15860      12.10000
    8546.50000       1.62491      66.16720      13.32310      12.25000       4.20410       2.81960       2.92860       2.47150      32.25710      93.07290      12.10000
    8547.00000       1.67355      66.11660      13.30180      12.25000       4.21690       2.76950       2.86140       2.45380      33.27100      93.17330      12.10000
    8547.50000       1.66008      66.29900      13.36710      12.25000       4.23780       2.72040       2.82000       2.44970      34.29150      92.74930      12.10000
    8548.00000       1.58691      66.94030      13.35850      12.25000       4.25690       2.67210       2.79060       2.46670      34.69760      91.80060      12.10000
    8548.50000       1.47945      67.50930      13.33990      12.25000       4.20020       2.67200       2.77040       2.48250      34.27190      91.38180      12.10000
    8549.00000       1.39068      67.54800      13.30510      12.25000       4.05020       2.67270       2.75330       2.48150      33.61320      91.43470      12.10000
    8549.50000       1.23831      67.15800      13.31250      12.25000       3.99230       2.67340       2.73750       2.48170      33.71860      91.50830      12.10000
    8550.00000       1.05815      66.71180      13.35950      12.25000       4.07650       2.67410       2.70920       2.47430      34.08750      90.94510      12.10000
    8550.50000       0.84228      66.36730      13.38930      12.25000       4.19440       2.67480       2.70290       2.47390      34.45650      90.31760      12.10000
    8551.00000       0.58702      66.45310      13.32930      12.25000       4.15180       2.67560       2.71850       2.48900      34.82540      90.46940      12.10000
    8551.50000       0.61165      66.74300      13.32510      12.25000       4.01010       2.67630       2.74970       2.48090      35.02330      90.66220      12.10000
    8552.00000       0.91428      67.07170      13.29760      12.25000       4.15750       2.67700       2.76370       2.48300      34.74710      90.86870      12.10000
    8552.50000       1.19622      66.13200      13.37020      12.25000       4.28680       2.67770       2.77210       2.49560      34.55680      91.52790      12.10000
    8553.00000       1.32885      64.67300      13.51010      12.25000       4.34800       2.67840       2.78150       2.50100      34.59060      92.05220      12.10000
    8553.50000       1.38348      64.23150      13.56760      12.25000       4.32460       2.68440       2.78040       2.50370      34.53590      92.48970      12.10000
