~VERSION INFORMATION
VERS.      2.0   :CWLS LOG ASCII STANDARD--VERSION 2.0
WRAP.      NO    :ONE LINE PER DEPTH STEP
~WELL INFORMATION
#MNEM.UNIT              DATA          DESCRIPTION
#================================================
STRT.FT                        346.00000 :START DEPTH
STOP.FT                      12588.00000 :STOP DEPTH
STEP.FT                          0.50000 :STEP
NULL.                         -999.00000 :NULL VALUE
COMP.   Data output from TerraStation II         : COMPANY
WELL.   Kugrua 1                                 : WELL NAME
UWI.    50-163-20002                             : WELL UWI
API.    50-163-20002                             : WELL API
LOC.    8  14N  26W                              : WELL LOCATION
DATE.   NorthSlope.W33                           : WELL DATE
FLD.    No Project Selected                      : Project NAME
~CURVE INFORMATION
#================================================
M__DEPTH.FT                  :M__DEPTH
SP      .MV                  :SP
GR      .GAPI                :GR
CALI    .IN                  :CALI
BitSize .IN                  :BitSize
LL8     .OHMM                :LL8
ILM     .OHMM                :ILM
ILD     .OHMM                :ILD
RHOB    .G/CC                :RHOB
NPHI    .%                   :NPHI
DT      .US/F                :DT
MudWgt  .LBS/GAL             :MudWgt
~PARAMETER INFORMATION
#================================================
~OTHER INFORMATION
#================================================
~A
# ...
    5314.00000      -5.31119      64.82140      15.11260      12.25000       8.88810       7.23660       7.27900       2.43080      34.85890      87.03090      10.00000
    5314.50000      -5.13373      65.47040      14.95660      12.25000       8.82690       7.28650       7.27290       2.45480      33.55500      87.22740      10.00000
    5315.00000      -4.82478      64.82720      14.72970      12.25000       8.74880       7.33680       7.22660       2.45820      32.92660      87.51180      10.00000
    5315.50000      -4.50242      63.14280      15.00950      12.25000       8.64730       7.35510       7.21230       2.45140      33.54630      89.04960      10.00000
    5316.00000      -4.21067      61.45830      15.07660      12.25000       8.55800       7.36330       7.21360       2.45150      33.67520      89.70000      10.00000
    5316.50000      -3.90902      60.80500      14.94460      12.25000       8.53190       7.37140       7.19040       2.45200      33.43090      90.05240      10.00000
    5317.00000      -3.84416      60.94930      14.90910      12.25000       8.56390       7.37960       7.19580       2.45810      33.12920      89.28110      10.00000
    5317.50000      -3.85001      61.64370      14.96710      12.25000       8.64010       7.38780       7.21900       2.46930      33.01970      87.70430      10.00000
    5318.00000      -3.85595      63.53810      15.02590      12.25000       8.72030       7.39600       7.24930       2.48500      32.70410      87.39230      10.00000
    5318.50000      -3.86190      64.63000      14.82530      12.25000       8.79510       7.40420       7.24190       2.47510      32.22970      86.96680      10.00000
    5319.00000      -3.86774      64.05240      14.42860      12.25000       8.87460       7.41240       7.28110       2.47160      31.71720      87.13340      10.00000
    5319.50000      -3.90729      61.24070      14.30550      12.25000       8.97060       7.42060       7.30740       2.46900      31.51040      87.63810      10.00000
    5320.00000      -3.98513      58.69340      14.47640      12.25000       8.98100       7.41140       7.29380       2.46310      31.38650      88.18240      10.00000
    5320.50000      -4.06498      57.54980      15.06280      12.25000       8.85490       7.35920       7.22330       2.44850      31.38230      88.73990      10.00000
    5321.00000      -4.08222      57.50870      15.13060      12.25000       8.71050       7.30740       7.15200       2.44120      31.38250      88.87300      10.00000
    5321.50000      -4.11167      57.78870      15.03390      12.25000       8.58500       7.25600       7.10950       2.43540      31.64420      88.92650      10.00000
    5322.00000      -4.13151      58.44860      14.99240      12.25000       8.53430       7.20490       7.09790       2.42420      32.97980      88.43510      10.00000
    5322.50000      -4.13576      59.28500      15.09300      12.25000       8.59620       7.15420       7.09790       2.42050      34.50800      87.72970      10.00000
    5323.00000      -4.05430      59.44000      15.18600      12.25000       8.71530       7.10390       7.07750       2.42810      35.43980      87.52620      10.00000
    5323.50000      -3.97345      59.15180      15.56830      12.25000       8.61330       7.05390       7.05890       2.44080      35.39810      86.96730      10.00000
    5324.00000      -3.78349      58.59710      15.54720      12.25000       8.53310       7.00420       7.05490       2.44230      34.69660      85.53970      10.00000
    5324.50000      -3.49344      58.09670      15.56720      12.25000       8.55940       6.95490       7.03920       2.43310      34.35990      86.39410      10.00000
    5325.00000      -3.33749      57.80510      15.66760      12.25000       8.58310       6.90600       6.94120       2.44090      33.65430      87.02010      10.00000
    5325.50000      -3.29243      58.49680      15.66500      12.25000       8.40230       6.85740       6.87990       2.46200      32.00790      88.21140      10.00000
    5326.00000      -3.38587      60.24160      15.41870      12.25000       8.25850       6.80910       6.81100       2.45460      31.50230      90.65530      10.00000
    5326.50000      -3.47542      62.03230      15.50790      12.25000       8.21950       6.80070       6.84690       2.42240      31.79660      91.54370      10.00000
    5327.00000      -3.66926      62.56070      15.74580      12.25000       8.28450       6.80550       6.87840       2.40460      32.74110      88.10950      10.00000
    5327.50000      -3.91041      61.58760      15.37810      12.25000       8.36630       6.81030       6.90660       2.39300      34.19370      88.25050      10.00000
    5328.00000      -4.23886      59.81030      15.00400      12.25000       8.53480       6.81510       6.89920       2.37400      34.79250      88.72340      10.00000
    5328.50000      -4.48550      58.29070      15.02580      12.25000       8.64250       6.81990       6.90670       2.38460      35.18550      88.98180      10.00000
    5329.00000      -4.47185      58.21990      15.17380      12.25000       8.58900       6.82470       6.91480       2.40140      35.18080      89.33460      10.00000
    5329.50000      -4.31109      58.92460      15.19460      12.25000       8.51460       6.82950       6.90860       2.40320      35.03590      89.45800      10.00000
    5330.00000      -4.25754      60.26760      15.15520      12.25000       8.45720       6.83430       6.89810       2.39040      34.66470      89.01230      10.00000
    5330.50000      -3.97608      60.74080      15.26560      12.25000       8.38930       6.83910       6.90380       2.40500      34.27530      89.31750      10.00000
    5331.00000      -3.89173      60.26830      15.43670      12.25000       8.36750       6.84390       6.90860       2.42670      34.37730      89.31250      10.00000
    5331.50000      -3.81027      59.98860      15.60940      12.25000       8.34890       6.84870       6.92830       2.41170      35.57210      88.53980      10.00000
    5332.00000      -3.70592      60.92510      15.71870      12.25000       8.38370       6.85350       6.98850       2.41310      36.26060      89.59280      10.00000
    5332.50000      -3.45826      62.60210      15.71170      12.25000       8.48090       6.85840       7.02770       2.41740      36.60040      90.56660      10.00000
    5333.00000      -3.26761      63.82150      15.57370      12.25000       8.62780       6.86320       7.02130       2.42050      36.35730      91.62340      10.00000
    5333.50000      -3.14975      64.35790      15.45230      12.25000       8.72710       6.86800       6.94440       2.42720      35.84240      91.64110      10.00000
    5334.00000      -3.15820      64.06720      15.60780      12.25000       8.67770       6.80240       6.82800       2.43710      35.19250      90.77050      10.00000
    5334.50000      -3.27774      63.50970      15.52490      12.25000       8.45690       6.69200       6.68190       2.43380      34.68970      90.06870      10.00000
    5335.00000      -3.44409      63.35320      15.08310      12.25000       8.03450       6.58340       6.54070       2.41200      34.50410      89.63020      10.00000
    5335.50000      -3.52443      63.12970      15.18820      12.25000       7.85130       6.47660       6.38180       2.40720      35.17090      88.84280      10.00000
    5336.00000      -3.47948      62.87010      15.42530      12.25000       7.78810       6.37150       6.49420       2.40740      35.71260      87.47910      10.00000
    5336.50000      -3.37483      61.85980      15.53350      12.25000       7.75510       6.26800       6.47350       2.40680      35.14370      88.30350      10.00000
    5337.00000      -3.30857      59.44000      15.35040      12.25000       7.76020       6.16630       6.47100       2.39590      34.35670      89.54890      10.00000
    5337.50000      -3.21742      56.66070      15.70300      12.25000       7.77920       6.08380       6.42030       2.39160      34.36430      89.94630      10.00000
