~VERSION INFORMATION
VERS.      2.0   :CWLS LOG ASCII STANDARD--VERSION 2.0
WRAP.      NO    :ONE LINE PER DEPTH STEP
~WELL INFORMATION
#MNEM.UNIT              DATA          DESCRIPTION
#================================================
STRT.FT                        346.00000 :START DEPTH
STOP.FT                      12588.00000 :STOP DEPTH
STEP.FT                          0.50000 :STEP
NULL.                         -999.00000 :NULL VALUE
COMP.   Data output from TerraStation II         : COMPANY
WELL.   Kugrua 1                                 : WELL NAME
UWI.    50-163-20002                             : WELL UWI
API.    50-163-20002                             : WELL API
LOC.    8  14N  26W                              : WELL LOCATION
DATE.   NorthSlope.W33                           : WELL DATE
FLD.    No Project Selected                      : Project NAME
~CURVE INFORMATION
#================================================
M__DEPTH.FT                  :M__DEPTH
SP      .MV                  :SP
GR      .GAPI                :GR
CALI    .IN                  :CALI
BitSize .IN                  :BitSize
LL8     .OHMM                :LL8
ILM     .OHMM                :ILM
ILD     .OHMM                :ILD
RHOB    .G/CC                :RHOB
NPHI    .%                   :NPHI
DT      .US/F                :DT
MudWgt  .LBS/GAL             :MudWgt
~PARAMETER INFORMATION
#================================================
~OTHER INFORMATION
#================================================
~A
# ...
   10138.00000     -11.98585      65.62780      14.31310       8.50000      13.30380      13.04730      12.97540       2.64430       7.11540      74.45030      10.80000
   10138.50000     -11.94395      67.02760      14.33000       8.50000      13.75180      12.95140      12.81660       2.63110       6.94150      74.61770      10.80000
   10139.00000     -11.90504      67.66030      14.35920       8.50000      14.36580      12.85620      12.63720       2.63400       6.80440      74.51580      10.80000
   10139.50000     -11.87454      67.44850      14.39660       8.50000      14.09360      12.67930      12.55490       2.64190       6.97830      74.27120      10.80000
   10140.00000     -11.84184      66.85850      14.42290       8.50000      13.29850      12.45220      12.47320       2.63760       7.77370      74.00980      10.80000
   10140.50000     -11.75743      66.78140      14.42880       8.50000      12.83360      12.22910      12.49480       2.63280       8.64130      74.20340      10.80000
   10141.00000     -11.64843      67.16250      14.40870       8.50000      12.74220      12.13670      12.51910       2.61230       9.09400      74.81900      10.80000
   10141.50000     -11.54512      67.34440      14.42000       8.50000      12.72660      12.05160      12.53790       2.56190       9.51230      75.57060      10.80000
   10142.00000     -11.46961      67.39270      14.49630       8.50000      12.77540      11.92810      12.47340       2.49050       9.74790      76.17370      10.80000
   10142.50000     -11.40461      66.62360      14.53770       8.50000      12.93970      11.79200      12.28030       2.44900       9.98340      76.22510      10.80000
   10143.00000     -11.32421      64.80980      14.75550       8.50000      12.83210      11.48620      12.07980       2.38510      10.56820      76.24310      10.80000
   10143.50000     -11.21801      62.72890      15.02640       8.50000      12.05780      11.06810      11.61640       2.33500      11.09770      76.14220      10.80000
   10144.00000     -11.11490      62.10990      15.24520       8.50000      11.33020      10.07840      11.02810       2.24870      12.47540      76.13610      10.80000
   10144.50000     -11.01940      62.94610      15.39230       8.50000      10.64660       9.14490      10.44900       2.12760      14.02870      76.83440      10.80000
   10145.00000     -10.93469      65.53000      15.50810       8.50000      10.00420       8.02830       9.90040       1.98710      15.99640      77.84540      10.80000
   10145.50000     -10.91379      69.23920      15.87860       8.50000       9.40050       6.98940       9.24020       1.85320      18.12280      79.12300      10.80000
   10146.00000     -11.01188      71.98740      15.72280       8.50000       8.63200       6.11250       8.33760       1.83780      20.34620      80.72300      10.80000
   10146.50000     -11.19468      73.07800      14.72360       8.50000       7.88630       5.94460       7.52330       1.93300      21.23860      82.85190      10.80000
   10147.00000     -11.39127      73.56620      15.99620       8.50000       8.08590       6.02050       6.78840       2.05470      20.87340      84.33690      10.80000
   10147.50000     -11.56957      73.88990      16.01580       8.50000       8.22140       6.18730       6.31040       2.12780      20.03220      86.73240      10.80000
   10148.00000     -11.86157      73.32290      16.01290       8.50000       8.25900       6.57890       6.35360       2.18440      19.32690      88.22460      10.80000
   10148.50000     -12.30236      71.98540      16.01000       8.50000       8.18370       7.23720       7.38980       2.26900      17.62710      89.21940      10.80000
   10149.00000     -12.93996      70.42670      16.00710       8.50000       7.97820       8.32130       8.60970       2.36420      14.28440      88.82190      10.80000
   10149.50000     -13.75665      69.13930      15.31860       8.50000      10.66830      10.83500      10.03090       2.46850      10.94310      87.70000      10.80000
   10150.00000     -14.82345      68.06150      14.40390       8.50000      15.37370      17.05540      11.68680       2.52840       7.13310      86.35680      10.80000
   10150.50000     -16.09254      65.97410      13.89830       8.50000      22.83810      20.40670      13.61610       2.55990       3.68600      81.68440      10.80000
   10151.00000     -17.28884      61.68440      13.67460       8.50000      27.76430      21.35430      16.17230       2.57660       2.87260      76.85410      10.80000
   10151.50000     -18.46323      56.44410      13.52120       8.50000      29.84320      22.02690      21.12030       2.58530       2.22820      73.16480      10.80000
   10152.00000     -19.07703      50.83090      13.42440       8.50000      32.07780      23.89630      27.73520       2.59610       2.09180      71.88910      10.80000
   10152.50000     -19.80073      49.30200      13.38660       8.50000      31.96180      25.92440      36.42190       2.59950       2.38400      72.35050      10.80000
   10153.00000     -20.31962      49.77740      13.37980       8.50000      28.22910      26.98790      38.01980       2.61210       2.54760      73.05870      10.80000
   10153.50000     -20.86442      51.92240      13.38320       8.50000      24.93230      28.05540      33.58880       2.58650       2.58220      73.38500      10.80000
   10154.00000     -21.35461      52.74460      13.35570       8.50000      22.02060      29.16500      29.67420       2.56870       2.55750      73.74960      10.80000
   10154.50000     -21.73341      52.28910      13.28190       8.50000      21.70770      30.31860      26.21580       2.56280       2.34770      74.33650      10.80000
   10155.00000     -21.98811      51.19770      13.18560       8.50000      22.98750      31.07950      25.29580       2.56080       2.08180      74.50340      10.80000
   10155.50000     -22.19730      49.99010      13.12560       8.50000      25.03610      31.33150      25.50330       2.56610       1.82110      74.47050      10.80000
   10156.00000     -22.23660      51.48410      13.08550       8.50000      27.55710      31.04020      26.59970       2.57080       1.72240      74.22190      10.80000
   10156.50000     -22.27689      53.42020      13.05800       8.50000      30.33190      30.31110      27.25160       2.57360       1.66590      73.86570      10.80000
   10157.00000     -22.21299      54.29110      13.06920       8.50000      29.37640      29.65120      27.91950       2.58170       1.74720      73.68930      10.80000
   10157.50000     -22.04068      55.04680      13.01690       8.50000      28.18510      29.00560      28.34000       2.58230       1.86320      73.61380      10.80000
   10158.00000     -21.70038      56.32720      13.00920       8.50000      27.04210      28.47770      28.27110       2.59120       1.95550      73.47280      10.80000
   10158.50000     -21.24478      58.23150      13.00900       8.50000      27.40980      27.98020      28.18480       2.60250       1.99350      73.33760      10.80000
   10159.00000     -20.74057      59.13420      13.00970       8.50000      27.78250      27.36020      27.52380       2.61320       1.97430      73.22300      10.80000
   10159.50000     -20.30957      58.99850      13.00900       8.50000      28.12240      26.12950      26.87830       2.61830       1.98810      73.10410      10.80000
   10160.00000     -19.58096      57.69280      13.01220       8.50000      27.99370      24.66300      26.11190       2.61290       2.21770      73.05530      10.80000
   10160.50000     -18.65446      55.54520      13.01530       8.50000      26.18330      23.27880      25.32790       2.62120       2.52850      73.10210      10.80000
   10161.00000     -17.53115      54.50980      13.01850       8.50000      24.22560      21.97230      23.94640       2.64060       2.84650      72.98770      10.80000
   10161.50000     -16.60525      55.13350      13.02350       8.50000      22.41430      20.73920      22.43980       2.65450       3.20310      72.73470      10.80000
