~VERSION INFORMATION
VERS.      2.0   :CWLS LOG ASCII STANDARD--VERSION 2.0
WRAP.      NO    :ONE LINE PER DEPTH STEP
~WELL INFORMATION
#MNEM.UNIT              DATA          DESCRIPTION
#================================================
STRT.FT                        346.00000 :START DEPTH
STOP.FT                      12588.00000 :STOP DEPTH
STEP.FT                          0.50000 :STEP
NULL.                         -999.00000 :NULL VALUE
COMP.   Data output from TerraStation II         : COMPANY
WELL.   Kugrua 1                                 : WELL NAME
UWI.    50-163-20002                             : WELL UWI
API.    50-163-20002                             : WELL API
LOC.    8  14N  26W                              : WELL LOCATION
DATE.   NorthSlope.W33                           : WELL DATE
FLD.    No Project Selected                      : Project NAME
~CURVE INFORMATION
#================================================
M__DEPTH.FT                  :M__DEPTH
SP      .MV                  :SP
GR      .GAPI                :GR
CALI    .IN                  :CALI
BitSize .IN                  :BitSize
LL8     .OHMM                :LL8
ILM     .OHMM                :ILM
ILD     .OHMM                :ILD
RHOB    .G/CC                :RHOB
NPHI    .%                   :NPHI
DT      .US/F                :DT
MudWgt  .LBS/GAL             :MudWgt
~PARAMETER INFORMATION
#================================================
~OTHER INFORMATION
#================================================
~A
# ...
   10954.00000      -0.47986      91.58040      15.71630       8.50000      20.60950      15.29970      19.18830       2.13510      25.43000      79.41260      10.80000
   10954.50000      -0.43060      93.85590      15.90010       8.50000      20.20280      12.59980      18.53380       2.09580      26.08670      78.29460      10.80000
   10955.00000      -0.27953      96.56490      15.97750       8.50000      19.82740      13.18140      17.58580       2.09620      26.05670      79.80340      10.80000
   10955.50000      -0.10126      97.47130      15.98090       8.50000      19.60700      16.16800      16.81290       2.10440      25.89830      82.43080      10.80000
   10956.00000      -0.02179      95.21370      15.96880       8.50000      19.48210      19.29140      17.32070       2.13370      26.09540      84.18860      10.80000
   10956.50000      -0.00113      91.73820      15.97160       8.50000      19.40850      17.16150      17.87510       2.17960      26.58270      84.11780      10.80000
   10957.00000      -0.00736      89.85290      15.97430       8.50000      19.17380      15.26670      16.31960       2.20680      27.10430      84.02210      10.80000
   10957.50000      -0.00380      89.51390      15.97700       8.50000      18.99650      13.60780      15.29150       2.15500      27.71180      82.34090      10.80000
   10958.00000       0.01387      88.76180      15.97970       8.50000      19.43090      13.41870      15.68470       2.14160      27.60420      81.52950      10.80000
   10958.50000       0.05353      87.25140      15.98240       8.50000      19.87520      14.38130      15.97900       2.18080      26.89990      82.11380      10.80000
   10959.00000       0.02890      84.99930      15.98520       8.50000      20.32960      16.56870      17.02410       2.20680      26.03020      82.02000      10.80000
   10959.50000      -0.02923      84.10800      15.98790       8.50000      19.86940      19.23530      18.37680       2.19560      25.41030      82.11230      10.80000
   10960.00000      -0.04987      84.04960      15.99060       8.50000      19.44470      24.07770      19.46960       2.19040      24.87060      83.31530      10.80000
   10960.50000       0.00000      85.47160      15.33200       8.50000      19.70420      29.47290      19.24970       2.19350      24.07000      82.42660      10.80000
   10961.00000      -0.02289      87.92040      12.99500       8.50000      21.01100      27.16540      19.19280       2.19950      23.42110      80.99420      10.80000
   10961.50000      -0.04888      89.34670      13.05600       8.50000      22.40440      22.42250      19.58970       2.20970      23.24830      81.12810      10.80000
   10962.00000      -0.12597      89.80680      13.32460       8.50000      23.03790      19.36220      19.64620       2.17670      23.59330      82.76950      10.80000
   10962.50000      -0.14756      89.85850      13.37620       8.50000      21.91670      18.08840      19.95260       2.09570      23.94880      82.24790      10.80000
   10963.00000      -0.21515      88.72030      13.83940       8.50000      20.85000      15.89500      20.35360       2.06090      24.06380      80.54690      10.80000
   10963.50000      -0.24844      87.72820      14.44710       8.50000      20.19990      14.99800      20.76260       2.06680      23.97600      80.24260      10.80000
   10964.00000      -0.26413      87.32240      14.83500       8.50000      20.29420      17.45600      21.08420       2.12100      23.18600      81.57990      10.80000
   10964.50000      -0.31462      87.17770      14.89890       8.50000      20.38890      20.30880      21.30810       2.16410      22.48470      82.40030      10.80000
   10965.00000      -0.37431      87.85420      14.98980       8.50000      20.21220      19.30100      21.45490       2.19720      22.27420      82.13450      10.80000
   10965.50000      -0.40990      88.52670      15.19580       8.50000      19.96310      18.56440      21.41620       2.19890      22.36450      82.17850      10.80000
   10966.00000      -0.43359      89.12800      14.81280       8.50000      20.18480      19.41900      21.37750       2.22610      21.78890      81.81840      10.80000
   10966.50000      -0.47698      89.58760      14.83150       8.50000      20.80620      20.31290      21.25210       2.27390      20.96390      80.95960      10.80000
   10967.00000      -0.52577      90.19620      15.90390       8.50000      21.44670      19.74200      21.05030       2.29600      20.63380      82.25360      10.80000
   10967.50000      -0.57456      91.26510      15.99090       8.50000      22.10700      18.28250      20.85040       2.33260      20.89510      82.71130      10.80000
   10968.00000      -0.66315      92.74240      15.99010       8.50000      21.83690      16.93090      20.58990       2.36660      21.39340      81.75330      10.80000
   10968.50000      -0.72124      94.76810      15.98930       8.50000      21.18550      16.49900      20.29780       2.39260      21.89160      80.81090      10.80000
   10969.00000      -0.79873      95.81720      15.98840       8.50000      20.55350      16.41790      20.00730       2.36240      22.38980      80.62120      10.80000
   10969.50000      -0.86953      96.07850      15.98760       8.50000      19.94030      15.61240      19.69570       2.31110      23.55760      80.84660      10.80000
   10970.00000      -0.91981      95.66950      15.98680       8.50000      19.74830      13.93970      19.21080       2.18190      25.01070      81.82370      10.80000
   10970.50000      -0.95170      93.64560      15.98010       8.50000      19.51630      12.77820      18.73090       2.04530      25.91910      82.61560      10.80000
   10971.00000      -0.93519      89.74620      15.62340       8.50000      18.75170      12.65730      17.93450       1.96300      26.62220      83.12800      10.80000
   10971.50000      -0.90958      85.54880      15.98710       8.50000      17.35230      14.36260      17.01020       1.92010      26.71720      83.84470      10.80000
   10972.00000      -0.86487      82.87470      15.98830       8.50000      16.41370      16.52150      15.85620       1.90800      26.32770      84.58830      10.80000
   10972.50000      -0.85316      81.28520      15.98950       8.50000      17.11780      13.43070      13.78520       1.91240      25.66870      83.33820      10.80000
   10973.00000      -0.79965      79.90820      15.99070       8.50000      17.81500      10.28460      12.99980       1.92410      25.00970      83.25130      10.80000
   10973.50000      -0.75684      78.27210      15.99190       8.50000      16.86480       8.92550      13.29690       1.94280      25.78490      85.21550      10.80000
   10974.00000      -0.75113      76.85460      15.99310       8.50000      15.96530       9.46340      14.14860       1.97630      26.49940      87.28220      10.80000
   10974.50000      -0.74082      76.26640      15.99420       8.50000      16.19630      17.52070      15.38970       2.01370      25.58140      88.86520      10.80000
   10975.00000      -0.80131      76.16630      15.99540       8.50000      17.16940      24.31300      16.22340       2.06960      23.91390      90.58470      10.80000
   10975.50000      -0.88181      76.58690      15.99660       8.50000      18.20090      35.12540      17.04320       2.11240      23.08000      90.03200      10.80000
   10976.00000      -0.93949      77.66170      15.40520       8.50000      19.29440      30.96230      17.90450       2.17320      22.21440      88.09560      10.80000
   10976.50000      -1.01658      79.23250      13.86090       8.50000      20.17530      17.96760      19.18160       2.19800      21.79700      85.66290      10.80000
   10977.00000      -1.08977      81.95320      13.52980       8.50000      19.80090      16.20640      20.71850       2.18320      21.60170      84.89710      10.80000
   10977.50000      -1.17126      85.42620      13.63520       8.50000      19.43340      14.73300      21.90230       2.22880      21.77840      84.40004      10.80000
