~VERSION INFORMATION
VERS.      2.0   :CWLS LOG ASCII STANDARD--VERSION 2.0
WRAP.      NO    :ONE LINE PER DEPTH STEP
~WELL INFORMATION
#MNEM.UNIT              DATA          DESCRIPTION
#================================================
STRT.FT                        346.00000 :START DEPTH
STOP.FT                      12588.00000 :STOP DEPTH
STEP.FT                          0.50000 :STEP
NULL.                         -999.00000 :NULL VALUE
COMP.   Data output from TerraStation II         : COMPANY
WELL.   Kugrua 1                                 : WELL NAME
UWI.    50-163-20002                             : WELL UWI
API.    50-163-20002                             : WELL API
LOC.    8  14N  26W                              : WELL LOCATION
DATE.   NorthSlope.W33                           : WELL DATE
FLD.    No Project Selected                      : Project NAME
~CURVE INFORMATION
#================================================
M__DEPTH.FT                  :M__DEPTH
SP      .MV                  :SP
GR      .GAPI                :GR
CALI    .IN                  :CALI
BitSize .IN                  :BitSize
LL8     .OHMM                :LL8
ILM     .OHMM                :ILM
ILD     .OHMM                :ILD
RHOB    .G/CC                :RHOB
NPHI    .%                   :NPHI
DT      .US/F                :DT
MudWgt  .LBS/GAL             :MudWgt
~PARAMETER INFORMATION
#================================================
~OTHER INFORMATION
#================================================
~A
# ...
   12562.00000     -21.45959      22.12580       8.27960       8.50000     532.32812    1816.41321    1775.46619       2.70660       1.84820      64.68410      10.60000
   12562.50000     -21.22863      22.16230       8.29260       8.50000     529.13739    1815.43921    1767.90503       2.67840       1.92630      65.03100      10.60000
   12563.00000     -20.99877      21.66550       8.30570       8.50000     496.11371    1803.92480    1765.52295       2.66400       1.93840      65.26350      10.60000
   12563.50000     -20.76891      21.48500       8.31000       8.50000     435.90790    1785.40845    1760.68921       2.66220       1.92940      65.27130      10.60000
   12564.00000     -20.50996      21.63220       8.30790       8.50000     398.86139    1767.08313    1702.58447       2.65210       1.92050      65.03190      10.60000
   12564.50000     -20.14410      21.80370       8.30590       8.50000     361.35040    1745.49866    1652.50854       2.66850       1.79670      64.63550      10.60000
   12565.00000     -19.69995      22.07750       8.30380       8.50000     324.04309    1480.60510    1643.79712       2.67900       1.65910      64.19830      10.60000
   12565.50000     -19.34218      22.64810       8.30170       8.50000     311.77319     945.27307    1635.13074       2.68260       1.52160      63.13620      10.60000
   12566.00000     -18.96143      23.45010       8.29960       8.50000     291.56491     567.15332    1626.51086       2.69570       1.38400      62.02060      10.60000
   12566.50000     -18.52987      24.33030       8.29810       8.50000     256.30939     470.38931    1617.93567       2.71420       1.24640      61.40260      10.60000
   12567.00000     -18.14242      25.72680       8.29710       8.50000     233.78940     600.85681    1609.40564       2.69450       1.10890      61.14560      10.60000
   12567.50000     -17.79526      26.98570       8.29620       8.50000     237.56700     949.54578    1609.05493       2.67440       0.97130      61.09160      10.60000
   12568.00000     -17.47251      28.89270       8.29530       8.50000     335.20850    1152.90063    1666.85413       2.67970       0.82020      61.03880      10.60000
   12568.50000     -17.20295      29.09820       8.29430       8.50000     657.22632    1399.80603    1709.83997       2.69390       0.66870      60.90400      10.60000
   12569.00000     -16.87909      28.32570       8.29340       8.50000    1000.82709    1699.58862    1729.76575       2.68190       0.51720      60.88650      10.60000
   12569.50000     -16.47792      27.41130       8.29240       8.50000    1276.30688    1782.79736    1746.18579       2.67090       0.34140      60.94020      10.60000
   12570.00000     -15.87868      26.92960       8.28240       8.50000    1369.82727    1812.64978    1769.66650       2.66730       0.10340      61.20160      10.60000
   12570.50000     -15.25271      25.71280       8.27190       8.50000    1380.17542    1843.00098    1780.15967       2.64930      -0.27560      61.72360      10.60000
   12571.00000     -14.77227      24.29570       8.26140       8.50000    1384.81421    1873.86157    1790.79761       2.64420      -0.90240      61.82940      10.60000
   12571.50000     -14.24820      23.38660       8.25090       8.50000    1382.14075    1905.23779    1761.39307       2.65080      -1.63710      61.74940      10.60000
   12572.00000     -13.70705      22.76080       8.24040       8.50000    1406.93396    1937.14050    1795.87378       2.65740      -2.79270      61.71090      10.60000
   12572.50000     -13.22319      22.35880       8.22980       8.50000    1315.77930    1933.77332    1799.74060       2.65620      -3.26190      62.48060      10.60000
   12573.00000     -12.70043      21.87400       8.22100       8.50000    1174.49951    1879.64880    1796.81653       2.60910      -3.29340      64.12270      10.60000
   12573.50000     -12.22148      22.03870       8.22100       8.50000     807.30298    1393.33899    1667.02075       2.59910      -3.32680      65.34340      10.60000
   12574.00000     -11.78782      23.41130       8.22100       8.50000     559.74237     841.93890    1395.33691       2.59890      -3.38430      65.88100      10.60000
   12574.50000     -11.22946      24.45070       8.22380       8.50000     546.03558     508.75021     848.17627       2.62510      -3.32010      65.83630      10.60000
   12575.00000     -10.55050      24.19760       8.22690       8.50000     471.30359     307.41751     501.22141       2.66050      -3.34470      65.11930      10.60000
   12575.50000     -10.04424      23.43370       8.22990       8.50000     252.99420     185.76019     316.96210       2.66770      -3.36490      63.52880      10.60000
   12576.00000      -9.70059      23.46440       8.23290       8.50000     128.61749     159.39101     299.36630       2.66740      -3.47850      62.41400      10.60000
   12576.50000      -9.42703      23.89280       8.21900       8.50000     107.20710     230.68340     285.77719       2.65590      -3.39910      62.23210      10.60000
   12577.00000      -9.18097      24.28850       8.20280       8.50000     137.14380     312.11880     283.70941       2.64630      -3.40320      62.59730      10.60000
   12577.50000      -8.88361      24.33770       8.18650       8.50000     231.01990     387.91730     332.47781       2.63020      -3.44640      62.83170      10.60000
   12578.00000      -8.48837      24.62140       8.18130       8.50000     342.54639     461.53601     403.49179       2.59480      -3.49800      63.60710      10.60000
   12578.50000      -8.15161      25.13550       8.27100       8.50000     394.96341    1211.81018     489.67401       2.59940      -3.57600      64.81050      10.60000
   12579.00000      -7.78386      25.46020       8.81400       8.50000     353.52328    1649.87427     601.09528       2.59670      -3.60250      66.21640      10.60000
   12579.50000      -7.29529      25.29870       8.98510       8.50000     318.89191    1685.75232     904.62347       2.50870      -3.55080      67.63800      10.60000
   12580.00000      -6.38653      24.44660       8.58380       8.50000     314.00879    1711.24573    1494.34827       2.51830      -3.56820      68.11860      10.60000
   12580.50000      -5.52609      23.36700       8.37630       8.50000     367.63239    1714.20837    1720.12573       2.52740      -3.51240      67.95150      10.60000
   12581.00000      -4.77443      22.98680       8.36620       8.50000     437.93881    1070.64600    1041.14648       2.60330      -3.50520      67.87710      10.60000
   12581.50000      -4.05588      22.56520       8.37560       8.50000     483.78549     495.30731     662.04797       2.64310      -3.48800      67.77480      10.60000
   12582.00000      -3.29271      21.91280       8.30400       8.50000     532.79681     243.55051     452.49960       2.63350      -3.55140      67.66250      10.60000
   12582.50000      -2.64774    -999.00000       8.23450       8.50000     348.91321     183.78580     386.59030       2.65760      -3.51460    -999.00000      10.60000
   12583.00000      -2.05740    -999.00000       8.22300       8.50000     231.00729     176.09540     330.28131       2.67700      -3.44130    -999.00000      10.60000
   12583.50000      -1.54664    -999.00000       8.22310       8.50000     162.17841     162.85580     282.17380       2.70720      -3.48470    -999.00000      10.60000
   12584.00000      -1.14918    -999.00000       8.23050       8.50000     118.23640     116.62280     246.29640       2.69650      -3.57160    -999.00000      10.60000
   12584.50000      -0.84972    -999.00000       8.23790       8.50000      78.71160      95.15910     221.98480       2.66990      -3.43090    -999.00000      10.60000
   12585.00000      -0.64147    -999.00000       8.24530       8.50000      74.94810      91.73010     209.69260       2.67770      -3.40960    -999.00000      10.60000
   12585.50000      -0.47152    -999.00000       8.24210       8.50000      80.16120      90.39210     205.39580       2.67520      -3.36380    -999.00000      10.60000
