~VERSION INFORMATION
VERS.      2.0   :CWLS LOG ASCII STANDARD--VERSION 2.0
WRAP.      NO    :ONE LINE PER DEPTH STEP
~WELL INFORMATION
#MNEM.UNIT              DATA          DESCRIPTION
#================================================
STRT.FT                        346.00000 :START DEPTH
STOP.FT                      12588.00000 :STOP DEPTH
STEP.FT                          0.50000 :STEP
NULL.                         -999.00000 :NULL VALUE
COMP.   Data output from TerraStation II         : COMPANY
WELL.   Kugrua 1                                 : WELL NAME
UWI.    50-163-20002                             : WELL UWI
API.    50-163-20002                             : WELL API
LOC.    8  14N  26W                              : WELL LOCATION
DATE.   NorthSlope.W33                           : WELL DATE
FLD.    No Project Selected                      : Project NAME
~CURVE INFORMATION
#================================================
M__DEPTH.FT                  :M__DEPTH
SP      .MV                  :SP
GR      .GAPI                :GR
CALI    .IN                  :CALI
BitSize .IN                  :BitSize
LL8     .OHMM                :LL8
ILM     .OHMM                :ILM
ILD     .OHMM                :ILD
RHOB    .G/CC                :RHOB
NPHI    .%                   :NPHI
DT      .US/F                :DT
MudWgt  .LBS/GAL             :MudWgt
~PARAMETER INFORMATION
#================================================
~OTHER INFORMATION
#================================================
~A
# ...
   11746.00000     -32.09657      24.01410      11.16450       8.50000     469.75369     369.77789     178.11060       2.67750       0.27570      66.12560      10.60000
   11746.50000     -31.98898      21.54250      11.16350       8.50000     386.29919     335.21960     375.15970       2.67030       0.16720      65.26900      10.60000
   11747.00000     -31.76690      21.26960      11.15420       8.50000     360.63019     559.02722     545.38202       2.66730       0.15010      65.53330      10.60000
   11747.50000     -31.40022      22.12540      11.15430       8.50000     336.20959     739.07593     679.01312       2.64530       0.20320      65.91250      10.60000
   11748.00000     -31.03485      23.75920      11.17260       8.50000     284.68481     926.13147     643.36279       2.61820       0.33140      65.78130      10.60000
   11748.50000     -30.71127      26.58490      11.18590       8.50000     122.48830     641.78741     561.12909       2.60430       0.56600      66.25050      10.60000
   11749.00000     -30.41079      30.27010      11.19610       8.50000      72.22020     343.88400     303.99271       2.61830       0.84580      67.20900      10.60000
   11749.50000     -30.14252      34.42250      11.22570       8.50000      70.91440     184.26080     136.26131       2.61310       1.28910      67.28200      10.60000
   11750.00000     -29.82374      35.80470      11.21930       8.50000      91.80640      98.73100      84.29480       2.59770       1.73510      66.67750      10.60000
   11750.50000     -29.49756      34.00590      11.28390       8.50000     162.90480      51.16570      52.08370       2.56880       2.11620      65.60510      10.60000
   11751.00000     -29.23359      30.90660      11.38750       8.50000     196.65910      24.72270      32.18120       2.56300       2.35000      64.28170      10.60000
   11751.50000     -29.06411      32.01320      11.41530       8.50000      84.73990      18.15980      31.49570       2.53260       4.01220      65.42290      10.60000
   11752.00000     -29.03333      36.82660      11.65160       8.50000      44.68990      20.32590      32.35290       2.47590       6.83290      68.62730      10.60000
   11752.50000     -29.12255      44.15360      11.90540       8.50000      36.13840      24.40760      32.57980       2.40060       9.25080      72.47250      10.60000
   11753.00000     -29.29417      49.08320      11.88680       8.50000      37.98390      36.51780      31.79530       2.36240       9.65930      73.99820      10.60000
   11753.50000     -29.49040      48.94330      11.81050       8.50000      53.40300      56.49010      29.65480       2.36710       8.94560      74.43480      10.60000
   11754.00000     -29.65072      45.53280      11.98780       8.50000      80.84620      67.90420      30.56040       2.42220       6.04070      72.64820      10.60000
   11754.50000     -29.77284      38.36160      12.14040       8.50000     145.43990      57.14520      34.79880       2.50050       2.86410      70.44360      10.60000
   11755.00000     -29.98046      31.89650      12.08510       8.50000     177.63200      48.09100      46.78570       2.54940       1.34340      67.99800      10.60000
   11755.50000     -30.19788      27.96820      11.93920       8.50000     146.63980      53.49720      82.29850       2.60760       0.83060      66.33430      10.60000
   11756.00000     -30.43421      26.90060      11.53360       8.50000     122.50070     183.54111     203.11630       2.64090       0.38700      66.35290      10.60000
   11756.50000     -30.58324      26.47020      11.36910       8.50000     358.22260     629.70319    1690.56873       2.65860      -0.07420      66.28170      10.60000
   11757.00000     -30.65325      24.13390      10.76960       8.50000    1240.91113     933.34613    1864.46423       2.68720      -0.27150      64.93430      10.60000
   11757.50000     -30.74277      20.53370      10.72120       8.50000    1265.79419    1284.80408    1813.18713       2.71220      -0.46880      62.30820      10.60000
   11758.00000     -30.78000      17.67740      10.70710       8.50000    1142.96582    1502.49536    1763.31934       2.70270      -0.62110      60.77050      10.60000
   11758.50000     -30.78252      16.67240      10.71250       8.50000    1138.11572    1716.70874    1740.80579       2.69810      -0.61120      61.07210      10.60000
   11759.00000     -30.80045      16.16870      10.72200       8.50000    1181.73279    1733.31226    1857.48547       2.69970      -0.60120      61.43140      10.60000
   11759.50000     -30.81827      15.54490      10.72020       8.50000    1304.88989    1734.42407    1981.98474       2.70270      -0.59120      61.82370      10.60000
   11760.00000     -30.85509      15.41580      10.71470       8.50000    1306.78174    1720.95032    2088.82568       2.69720      -0.58120      62.02300      10.60000
   11760.50000     -30.94311      16.20500      10.71230       8.50000    1240.89758    1707.58203    2038.59265       2.69910      -0.57120      62.14040      10.60000
   11761.00000     -31.11534      17.70340      10.72430       8.50000    1052.77844    1682.88220    1989.56775       2.70260      -0.56120      62.19740      10.60000
   11761.50000     -31.26155      19.13480      10.70210       8.50000    1006.13428    1648.84839    1941.72192       2.69290      -0.55900      62.41710      10.60000
   11762.00000     -31.32108      20.48900      10.70120       8.50000     957.20343    1630.38989    1894.44727       2.68830      -0.55980      62.51460      10.60000
   11762.50000     -31.34910      21.81250      10.70410       8.50000     884.12451    1622.48438    1867.15100       2.68600      -0.56060      62.39290      10.60000
   11763.00000     -31.36123      22.61510      10.71630       8.50000     844.35779    1616.32349    1855.33411       2.70210      -0.56140      62.37240      10.60000
   11763.50000     -31.37335      22.72140      10.72510       8.50000     895.88031    1619.94519    1839.06738       2.70910      -0.56210      62.47400      10.60000
   11764.00000     -31.32697      21.91220      10.71560       8.50000     958.46283    1619.40540    1830.36804       2.71560      -0.56290      62.50010      10.60000
   11764.50000     -31.13059      20.60770      10.71210       8.50000     886.34930    1616.31726    1827.38513       2.71740      -0.56370      62.54350      10.60000
   11765.00000     -30.72561      19.82060      10.71870       8.50000     801.15552    1613.23499    1824.40613       2.71450      -0.56450      62.49320      10.60000
   11765.50000     -30.24363      19.47420      10.72480       8.50000     803.92627    1610.15771    1821.43286       2.71030      -0.54280      62.48660      10.60000
   11766.00000     -29.74486      18.69770      10.76000       8.50000     946.01288    1607.08716    1818.46350       2.71080      -0.50900      62.53250      10.60000
   11766.50000     -29.32518      17.14490      10.80220       8.50000    1068.55505    1604.02246    1815.50000       2.71030      -0.47520      62.46740      10.60000
   11767.00000     -28.85351      16.61050      10.81870       8.50000    1064.34973    1613.56982    1812.54028       2.71290      -0.44140      62.29790      10.60000
   11767.50000     -28.13803      17.30480      10.88070       8.50000     975.98749    1617.38684    1809.58643       2.72560      -0.40760      61.87560      10.60000
   11768.00000     -27.28025      18.91570      10.88830       8.50000     860.65723    1621.21289    1745.58008       2.73870      -0.37380      62.01180      10.60000
   11768.50000     -26.39187      20.09340      10.90000       8.50000     761.17078    1625.04724    1441.33154       2.74850      -0.34000      62.38550      10.60000
   11769.00000     -25.66959      20.54800      10.94000       8.50000     672.84009    1628.89136     911.05560       2.74580      -0.30630      62.53140      10.60000
   11769.50000     -25.13201      20.33290      10.98770       8.50000     601.10217    1632.74377     699.45789       2.73570      -0.27720      62.42300      10.60000
