~VERSION INFORMATION
VERS.      2.0   :CWLS LOG ASCII STANDARD--VERSION 2.0
WRAP.      NO    :ONE LINE PER DEPTH STEP
~WELL INFORMATION
#MNEM.UNIT              DATA          DESCRIPTION
#================================================
STRT.FT                        346.00000 :START DEPTH
STOP.FT                      12588.00000 :STOP DEPTH
STEP.FT                          0.50000 :STEP
NULL.                         -999.00000 :NULL VALUE
COMP.   Data output from TerraStation II         : COMPANY
WELL.   Kugrua 1                                 : WELL NAME
UWI.    50-163-20002                             : WELL UWI
API.    50-163-20002                             : WELL API
LOC.    8  14N  26W                              : WELL LOCATION
DATE.   NorthSlope.W33                           : WELL DATE
FLD.    No Project Selected                      : Project NAME
~CURVE INFORMATION
#================================================
M__DEPTH.FT                  :M__DEPTH
SP      .MV                  :SP
GR      .GAPI                :GR
CALI    .IN                  :CALI
BitSize .IN                  :BitSize
LL8     .OHMM                :LL8
ILM     .OHMM                :ILM
ILD     .OHMM                :ILD
RHOB    .G/CC                :RHOB
NPHI    .%                   :NPHI
DT      .US/F                :DT
MudWgt  .LBS/GAL             :MudWgt
~PARAMETER INFORMATION
#================================================
~OTHER INFORMATION
#================================================
~A
# ...
    6922.00000      -1.26527     108.02260      14.46100      12.25000       7.54590       4.92620       4.90390       2.46230      37.63930      95.55280      11.20000
    6922.50000      -1.25245     106.96230      14.36770      12.25000       7.70130       4.96530       4.97220       2.44250      37.30570      93.63850      11.20000
    6923.00000      -1.23664     106.27090      14.40590      12.25000       7.75990       5.09970       5.10810       2.44970      36.53340      92.25570      11.20000
    6923.50000      -1.22082     105.83340      14.49320      12.25000       7.79920       5.25020       5.24780       2.45240      35.75320      91.29480      11.20000
    6924.00000      -1.24190     105.45930      14.18900      12.25000       8.00240       5.40520       5.39120       2.49580      34.52090      91.34760      11.20000
    6924.50000      -1.25708     104.62060      14.36890      12.25000       8.33240       5.56470       5.54030       2.50940      34.93190      92.05750      11.20000
    6925.00000      -1.24887     101.99050      14.51420      12.25000       8.75860       5.72900       5.69810       2.51310      35.47660      92.57760      11.20000
    6925.50000      -1.27985     101.17270      14.29700      12.25000       8.83830       5.89810       5.80920       2.50310      35.77020      93.33550      11.20000
    6926.00000      -1.31203     100.35500      14.38740      12.25000       8.81320       6.05690       5.91990       2.49270      36.06090      94.03170      11.20000
    6926.50000      -1.32702      99.52670      14.32820      12.25000       8.85800       6.06040       6.01070       2.49240      36.35160      93.62250      11.20000
    6927.00000      -1.33840      99.04630      14.28490      12.25000       8.89170       6.06390       6.06180       2.48720      36.64220      93.39810      11.20000
    6927.50000      -1.34978      98.12100      14.31390      12.25000       8.84450       6.06740       6.04540       2.47080      36.94290      93.29700      11.20000
    6928.00000      -1.37906      96.60430      14.37320      12.25000       8.76220       6.07090       6.01870       2.44250      37.19450      92.71710      11.20000
    6928.50000      -1.37864      95.44090      14.46140      12.25000       8.66810       6.07440       5.98990       2.44030      37.27410      93.77980      11.20000
    6929.00000      -1.38683      95.27000      14.41940      12.25000       8.48070       6.07930       5.98350       2.45790      36.96440      94.01400      11.20000
    6929.50000      -1.41971      95.67040      14.36540      12.25000       8.27950       6.08480       6.00170       2.47710      36.19140      91.07650      11.20000
    6930.00000      -1.46179      95.85280      14.24150      12.25000       8.41340       6.09040       6.04870       2.48800      35.59550      90.28130      11.20000
    6930.50000      -1.47228      94.24540      14.24820      12.25000       8.76860       6.09600       6.09560       2.49160      34.09110      91.75350      11.20000
    6931.00000      -1.45286      92.49180      14.25810      12.25000       9.04950       6.11450       6.14350       2.47740      33.34470      92.67720      11.20000
    6931.50000      -1.45224      91.28720      14.26910      12.25000       9.03490       6.17210       6.20770       2.45270      33.60710      93.08890      11.20000
    6932.00000      -1.50122      90.88870      14.37550      12.25000       9.00850       6.23020       6.31060       2.43700      34.43450      94.26390      11.20000
    6932.50000      -1.54121      91.85060      14.36190      12.25000       9.03040       6.28890       6.30020       2.44760      35.39790      94.79370      11.20000
    6933.00000      -1.61539      94.95100      14.68450      12.25000       9.01180       6.32890       6.25550       2.48740      36.07750      94.21270      11.20000
    6933.50000      -1.68877      97.92420      14.55080      12.25000       8.69950       6.24530       6.15040       2.48060      36.64940      92.74740      11.20000
    6934.00000      -1.72796      99.12100      14.99420      12.25000       8.37920       6.16280       6.08510       2.46980      37.35990      91.46680      11.20000
    6934.50000      -1.78044     100.31770      15.03980      12.25000       8.10140       6.08150       6.04710       2.45680      36.80670      92.70040      11.20000
    6935.00000      -1.82692     101.51440      14.60040      12.25000       8.17280       6.06590       6.04380       2.46250      36.51330      94.32530      11.20000
    6935.50000      -1.83360     104.78050      14.35550      12.25000       8.38260       6.07490       6.05510       2.44330      36.70470      94.96580      11.20000
    6936.00000      -1.83329     108.04650      14.51760      12.25000       8.61340       6.08390       6.06160       2.43150      37.32390      95.73180      11.20000
    6936.50000      -1.81277     111.31260      14.35740      12.25000       8.76790       6.09300       6.07950       2.42970      37.93140      96.77070      11.20000
    6937.00000      -1.73685     114.57860      14.33630      12.25000       8.73680       6.10200       6.08360       2.41870      37.46740      96.00920      11.20000
    6937.50000      -1.66094     116.20680      14.34220      12.25000       8.65190       6.11100       6.09720       2.41410      37.33310      94.12550      11.20000
    6938.00000      -1.64412     113.55950      14.35290      12.25000       8.57820       6.12010       6.11000       2.43160      36.87600      93.08520      11.20000
    6938.50000      -1.59800     107.60690      14.26110      12.25000       8.63000       6.12920       6.09890       2.44890      36.22870      92.51810      11.20000
    6939.00000      -1.61218     101.65420      14.10340      12.25000       8.48760       6.13830       6.07910       2.45810      36.99600      91.70670      11.20000
    6939.50000      -1.65827      98.89010      14.12760      12.25000       8.42560       6.14740       6.06180       2.45370      38.05920      92.49850      11.20000
    6940.00000      -1.69475      96.22600      14.15260      12.25000       8.53870       6.15650       6.04310       2.45540      38.99890      93.48900      11.20000
    6940.50000      -1.69103      95.33030      14.17640      12.25000       8.57470       6.16560       5.99970       2.46770      39.36210      95.26110      11.20000
    6941.00000      -1.71861      98.18120      14.05010      12.25000       8.53970       6.17480       5.94860       2.47510      38.76980      96.79330      11.20000
    6941.50000      -1.75190     104.96760      13.93590      12.25000       8.65540       5.94540       5.90780       2.47600      37.35030      98.03400      11.20000
    6942.00000      -1.72958     107.93980      13.85920      12.25000       8.41540       5.67670       5.71110       2.50190      35.23130     100.42410      11.20000
    6942.50000      -1.68386     109.42010      13.87220      12.25000       7.98900       5.42010       5.46520       2.51710      33.66320     100.79620      11.20000
    6943.00000      -1.65815     111.02270      13.88150      12.25000       7.97030       5.17520       5.33780       2.47490      35.19630      99.20930      11.20000
    6943.50000      -1.63763     112.27340      13.88970      12.25000       7.84980       5.06780       5.33530       2.43280      37.54830      97.65610      11.20000
    6944.00000      -1.62061     111.06930      13.91650      12.25000       7.75000       5.16830       5.35330       2.39450      37.92380      94.57070      11.20000
    6944.50000      -1.60349     107.78110      13.90410      12.25000       7.85250       5.27090       5.39890       2.41070      37.41010      90.61470      11.20000
    6945.00000      -1.64978     105.17570      13.83750      12.25000       8.03950       5.43710       5.58580       2.44710      36.54320      88.32660      11.20000
    6945.50000      -1.77206      99.62130      13.84970      12.25000       8.27430       5.63410       5.78850       2.48110      36.49300      88.37100      11.20000
