~VERSION INFORMATION
VERS.      2.0   :CWLS LOG ASCII STANDARD--VERSION 2.0
WRAP.      NO    :ONE LINE PER DEPTH STEP
~WELL INFORMATION
#MNEM.UNIT              DATA          DESCRIPTION
#================================================
STRT.FT                        346.00000 :START DEPTH
STOP.FT                      12588.00000 :STOP DEPTH
STEP.FT                          0.50000 :STEP
NULL.                         -999.00000 :NULL VALUE
COMP.   Data output from TerraStation II         : COMPANY
WELL.   Kugrua 1                                 : WELL NAME
UWI.    50-163-20002                             : WELL UWI
API.    50-163-20002                             : WELL API
LOC.    8  14N  26W                              : WELL LOCATION
DATE.   NorthSlope.W33                           : WELL DATE
FLD.    No Project Selected                      : Project NAME
~CURVE INFORMATION
#================================================
M__DEPTH.FT                  :M__DEPTH
SP      .MV                  :SP
GR      .GAPI                :GR
CALI    .IN                  :CALI
BitSize .IN                  :BitSize
LL8     .OHMM                :LL8
ILM     .OHMM                :ILM
ILD     .OHMM                :ILD
RHOB    .G/CC                :RHOB
NPHI    .%                   :NPHI
DT      .US/F                :DT
MudWgt  .LBS/GAL             :MudWgt
~PARAMETER INFORMATION
#================================================
~OTHER INFORMATION
#================================================
~A
# ...
    1306.00000      -4.80492      61.38660    -999.00000      17.50000       8.17990       7.96900      10.14750    -999.00000    -999.00000     113.05560       9.60000
    1306.50000      -5.36903      60.83140    -999.00000      17.50000       8.31950       8.05590      10.19480    -999.00000    -999.00000     112.03510       9.60000
    1307.00000      -6.09054      60.31610    -999.00000      17.50000       8.46140       8.16960      10.25980    -999.00000    -999.00000     110.31050       9.60000
    1307.50000      -6.94104      59.71200    -999.00000      17.50000       8.66340       8.28500      10.37080    -999.00000    -999.00000     111.60220       9.60000
    1308.00000      -7.95585      58.71360    -999.00000      17.50000       8.72540       8.41540      10.48310    -999.00000    -999.00000     109.97650       9.60000
    1308.50000      -8.88196      58.04400    -999.00000      17.50000       8.78480       8.46140      10.53950    -999.00000    -999.00000     106.03400       9.60000
    1309.00000      -9.92827      58.49960    -999.00000      17.50000       8.76490       8.45760      10.43460    -999.00000    -999.00000     105.24670       9.60000
    1309.50000     -10.66118      58.84440    -999.00000      17.50000       8.65510       8.45380      10.33070    -999.00000    -999.00000     106.71860       9.60000
    1310.00000     -11.65759      58.54330    -999.00000      17.50000       8.45920       8.44990      10.16280    -999.00000    -999.00000     112.00040       9.60000
    1310.50000     -13.51139      56.78560    -999.00000      17.50000       8.17990       8.46930       9.95490    -999.00000    -999.00000     113.97420       9.60000
    1311.00000     -17.45750      50.49750    -999.00000      17.50000       7.92870       8.49160       9.76360    -999.00000    -999.00000     111.10230       9.60000
    1311.50000     -23.11151      45.74210    -999.00000      17.50000       7.87930       8.61540       9.57690    -999.00000    -999.00000     103.88180       9.60000
    1312.00000     -28.72242      43.57460    -999.00000      17.50000      10.11460       8.75030       9.39370    -999.00000    -999.00000      98.53930       9.60000
    1312.50000     -32.64823      42.43200    -999.00000      17.50000      13.14760       8.88730       9.21400    -999.00000    -999.00000     100.22960       9.60000
    1313.00000     -35.02833      41.78820    -999.00000      17.50000      13.88000       9.02640       9.20850    -999.00000    -999.00000     100.68500       9.60000
    1313.50000     -36.17884      40.45600    -999.00000      17.50000      13.83300       9.26690       9.35840    -999.00000    -999.00000     101.12590       9.60000
    1314.00000     -36.77355      38.56460    -999.00000      17.50000      13.79870       9.58750       9.74010    -999.00000    -999.00000     101.32940       9.60000
    1314.50000     -36.81846      36.78410    -999.00000      17.50000      13.80990       9.99320      10.19630    -999.00000    -999.00000     102.98940       9.60000
    1315.00000     -36.27877      35.97350    -999.00000      17.50000      13.82110      10.54160      10.83700    -999.00000    -999.00000     110.56190       9.60000
    1315.50000     -34.89128      35.05680    -999.00000      17.50000      13.98520      11.48030      11.85130    -999.00000    -999.00000     122.08800       9.60000
    1316.00000     -32.21208      34.42700    -999.00000      17.50000      15.31080      13.26310      13.50280    -999.00000    -999.00000     133.90390       9.60000
    1316.50000     -28.45159      34.54010    -999.00000      17.50000      17.41020      14.98440      15.70090    -999.00000    -999.00000     143.12140       9.60000
    1317.00000     -24.92740      35.38970    -999.00000      17.50000      19.79750      16.88670      17.87280    -999.00000    -999.00000     152.33900       9.60000
    1317.50000     -20.69791      36.17680    -999.00000      17.50000      22.51220      19.03050      19.82380    -999.00000    -999.00000     153.44420       9.60000
    1318.00000     -17.03181      39.18270    -999.00000      17.50000      25.00590      21.44640      21.98770    -999.00000    -999.00000     147.52910       9.60000
    1318.50000     -13.65292      43.84310    -999.00000      17.50000      26.49470      24.16910      23.25630    -999.00000    -999.00000     139.06010       9.60000
    1319.00000     -10.64823      50.56500    -999.00000      17.50000      26.57440      25.20450      23.66610    -999.00000    -999.00000     131.39661       9.60000
    1319.50000      -8.07024      57.05660    -999.00000      17.50000      23.74510      23.63050      22.13510    -999.00000    -999.00000     119.60550       9.60000
    1320.00000      -5.94265      60.19010    -999.00000      17.50000      20.52990      19.70070      19.70990    -999.00000    -999.00000     112.83780       9.60000
    1320.50000      -5.00156      62.23410    -999.00000      17.50000      17.75010      16.33010      17.54710    -999.00000    -999.00000     110.41030       9.60000
    1321.00000      -4.62207      62.20520    -999.00000      17.50000      15.34670      13.53620      15.87100    -999.00000    -999.00000     114.85840       9.60000
    1321.50000      -4.39037      61.72960    -999.00000      17.50000      13.00480      11.83160      14.75280    -999.00000    -999.00000     119.17890       9.60000
    1322.00000      -4.11438      61.68300    -999.00000      17.50000      11.33660      10.89650      13.71340    -999.00000    -999.00000     121.03910       9.60000
    1322.50000      -3.77789      61.07500    -999.00000      17.50000      10.67830      10.03540      13.36730    -999.00000    -999.00000     117.33010       9.60000
    1323.00000      -3.49660      60.27760    -999.00000      17.50000      10.50400       9.90440      13.22600    -999.00000    -999.00000     109.90060       9.60000
    1323.50000      -3.35751      60.05770    -999.00000      17.50000      10.80580      10.63200      13.17560    -999.00000    -999.00000     100.52850       9.60000
    1324.00000      -3.36631      60.73330    -999.00000      17.50000      11.11630      11.20960      13.30630    -999.00000    -999.00000      94.75590       9.60000
    1324.50000      -3.48582      61.46030    -999.00000      17.50000      11.44060      11.46000      13.50350    -999.00000    -999.00000      93.54750       9.60000
    1325.00000      -3.64793      62.18730    -999.00000      17.50000      11.80990      11.50440      13.80580    -999.00000    -999.00000      96.31500       9.60000
    1325.50000      -3.82654      62.91430    -999.00000      17.50000      11.63470      11.33830      14.24680    -999.00000    -999.00000     102.84270       9.60000
    1326.00000      -4.02095      63.70740    -999.00000      17.50000      10.98000      10.92320      14.68280    -999.00000    -999.00000     109.74840       9.60000
    1326.50000      -4.10705      63.63850    -999.00000      17.50000      10.32170      10.33770      15.09250    -999.00000    -999.00000     108.78830       9.60000
    1327.00000      -4.14386      62.52720    -999.00000      17.50000      10.10410      10.14130      15.20690    -999.00000    -999.00000     105.57510       9.60000
    1327.50000      -4.12757      61.27710    -999.00000      17.50000      10.78820      10.37310      14.88170    -999.00000    -999.00000     100.84440       9.60000
    1328.00000      -4.13948      60.09500    -999.00000      17.50000      11.44070      10.62360      14.04290    -999.00000    -999.00000      98.21600       9.60000
    1328.50000      -4.06299      59.26110    -999.00000      17.50000      11.43810      10.63550      13.50610    -999.00000    -999.00000     102.19310       9.60000
    1329.00000      -3.80070      59.51500    -999.00000      17.50000      11.24740      10.46280      13.39490    -999.00000    -999.00000     109.97750       9.60000
    1329.50000      -3.50340      59.95160    -999.00000      17.50000      10.77850      10.05330      13.35530    -999.00000    -999.00000     111.14270       9.60000
