~VERSION INFORMATION
VERS.      2.0   :CWLS LOG ASCII STANDARD--VERSION 2.0
WRAP.      NO    :ONE LINE PER DEPTH STEP
~WELL INFORMATION
#MNEM.UNIT              DATA          DESCRIPTION
#================================================
STRT.FT                        346.00000 :START DEPTH
STOP.FT                      12588.00000 :STOP DEPTH
STEP.FT                          0.50000 :STEP
NULL.                         -999.00000 :NULL VALUE
COMP.   Data output from TerraStation II         : COMPANY
WELL.   Kugrua 1                                 : WELL NAME
UWI.    50-163-20002                             : WELL UWI
API.    50-163-20002                             : WELL API
LOC.    8  14N  26W                              : WELL LOCATION
DATE.   NorthSlope.W33                           : WELL DATE
FLD.    No Project Selected                      : Project NAME
~CURVE INFORMATION
#================================================
M__DEPTH.FT                  :M__DEPTH
SP      .MV                  :SP
GR      .GAPI                :GR
CALI    .IN                  :CALI
BitSize .IN                  :BitSize
LL8     .OHMM                :LL8
ILM     .OHMM                :ILM
ILD     .OHMM                :ILD
RHOB    .G/CC                :RHOB
NPHI    .%                   :NPHI
DT      .US/F                :DT
MudWgt  .LBS/GAL             :MudWgt
~PARAMETER INFORMATION
#================================================
~OTHER INFORMATION
#================================================
~A
# ...
    2914.00000      -4.65546      63.57150      16.90090      12.25000       8.83350       7.03410       7.86480       2.49380      35.85890     100.17230       9.10000
    2914.50000      -4.58671      64.91530      16.85520      12.25000       8.61570       6.92280       7.80910       2.49030      36.09190      99.42210       9.10000
    2915.00000      -4.55846      65.13410      16.91100      12.25000       8.43960       6.83640       7.75380       2.49390      36.15740      99.07770       9.10000
    2915.50000      -4.55541      64.15590      17.08160      12.25000       8.26710       6.82420       7.69900       2.47970      35.99920     100.67630       9.10000
    2916.00000      -4.53316      62.90540      17.23450      12.25000       8.28140       6.82150       7.64450       2.45930      35.64520     101.25840       9.10000
    2916.50000      -4.48111      61.99920      17.16250      12.25000       8.39080       6.81740       7.59040       2.46550      35.72210      99.60020       9.10000
    2917.00000      -4.45847      61.04280      17.12990      12.25000       8.50160       6.80060       7.54910       2.47370      35.98270     100.03840       9.10000
    2917.50000      -4.54672      60.31930      17.25450      12.25000       8.58360       6.74120       7.55590       2.48190      36.13260     100.87440       9.10000
    2918.00000      -4.57237      60.05200      17.29570      12.25000       8.46410       6.66650       7.55750       2.47420      36.11580     102.10190       9.10000
    2918.50000      -4.60072      60.29320      17.33770      12.25000       8.28170       6.66010       7.56340       2.47140      35.92950     104.33220       9.10000
    2919.00000      -4.57508      61.03240      17.40290      12.25000       8.10320       6.64340       7.51060       2.47410      35.34170     104.66830       9.10000
    2919.50000      -4.51393      61.69290      17.30720      12.25000       8.17920       6.62670       7.45810       2.44920      34.72380     103.03300       9.10000
    2920.00000      -4.42978      61.80290      17.18110      12.25000       8.31600       6.57890       7.40610       2.44920      33.98130     100.49510       9.10000
    2920.50000      -4.34953      61.63560      17.06700      12.25000       8.29360       6.52630       7.35430       2.45480      33.98340      99.13470       9.10000
    2921.00000      -4.27598      61.40240      17.08010      12.25000       8.13150       6.47410       7.29790       2.44980      34.91060      97.97290       9.10000
    2921.50000      -4.20343      61.47080      16.97710      12.25000       8.01090       6.42230       7.25240       2.45810      36.40000      97.81260       9.10000
    2922.00000      -4.20709      61.58720      16.86740      12.25000       7.85480       6.42560       7.25500       2.48920      37.52210      98.91340       9.10000
    2922.50000      -4.16964      60.79530      16.53580      12.25000       7.92860       6.45810       7.23320       2.51010      38.35300      99.59200       9.10000
    2923.00000      -4.16559      59.54480      16.55370      12.25000       8.04300       6.49100       7.20920       2.51290      37.65030      99.93800       9.10000
    2923.50000      -4.16154      58.56260      16.72620      12.25000       8.18490       6.47760       7.19040       2.52830      36.63070      99.96100       9.10000
    2924.00000      -4.15749      57.58050      16.94140      12.25000       8.24250       6.42810       7.17170       2.54100      36.22710      99.41930       9.10000
    2924.50000      -4.18684      59.46860      17.05850      12.25000       8.17380       6.37840       7.15300       2.53040      36.04830      98.88460       9.10000
    2925.00000      -4.29360      62.54900      17.06170      12.25000       8.01560       6.30230       7.16760       2.53400      36.10010      98.94120       9.10000
    2925.50000      -4.33145      64.15460      17.06260      12.25000       7.94110       6.29300       7.20140       2.53310      36.86830      99.03860       9.10000
    2926.00000      -4.29460      65.09550      17.01430      12.25000       7.86740       6.28120       7.19300       2.51700      37.34460      99.79100       9.10000
    2926.50000      -4.28695      65.54970      16.87640      12.25000       7.84240       6.26930       7.10460       2.51130      37.13520     101.43150       9.10000
    2927.00000      -4.32270      65.16180      16.98080      12.25000       7.84530       6.25740       7.00440       2.52310      36.56720     102.68520       9.10000
    2927.50000      -4.26496      64.16450      16.98570      12.25000       7.83710       6.21650       6.89360       2.51840      36.31160     102.71580       9.10000
    2928.00000      -4.18401      62.90260      17.03110      12.25000       7.78880       6.16550       6.78450       2.48700      36.77040      99.69780       9.10000
    2928.50000      -4.05076      62.34900      16.92040      12.25000       7.75320       6.11490       6.67710       2.48490      37.10680      95.86690       9.10000
    2929.00000      -3.90461      62.20820      16.96570      12.25000       7.70180       6.06480       6.65460       2.49800      37.20770      93.82250       9.10000
    2929.50000      -3.76366      62.13240      17.06030      12.25000       7.63150       6.03470       6.65490       2.50640      37.40850      92.94160       9.10000
    2930.00000      -3.73132      61.98230      16.81380      12.25000       7.69140       6.09760       6.65510       2.49780      37.55190      93.43590       9.10000
    2930.50000      -3.70757      61.73300      16.67540      12.25000       7.88670       6.18520       6.69070       2.51460      37.56760      94.31960       9.10000
    2931.00000      -3.67322      61.55110      16.59430      12.25000       8.08690       6.26350       6.79040       2.55040      37.20210      95.97770       9.10000
    2931.50000      -3.66437      61.21780      16.52940      12.25000       8.25540       6.34290       6.89160       2.59000      36.65800      97.47000       9.10000
    2932.00000      -3.73622      60.06280      16.79870      12.25000       8.18110       6.42320       6.99430       2.60780      35.01970      98.14260       9.10000
    2932.50000      -3.85677      59.24230      16.80920      12.25000       8.10750       6.50460       7.09850       2.59560      33.97730      98.52250       9.10000
    2933.00000      -3.99633      58.90760      16.92520      12.25000       8.03460       6.58700       7.20430       2.58170      34.07590      98.36650       9.10000
    2933.50000      -4.10708      58.76160      16.96440      12.25000       8.00730       6.64020       7.31170       2.55770      34.50940      98.27870       9.10000
    2934.00000      -4.14153      58.10830      17.01910      12.25000       8.10090       6.66360       7.38400       2.52760      34.84840      99.65210       9.10000
    2934.50000      -4.14818      56.43660      16.95970      12.25000       8.27310       6.68710       7.42740       2.51630      34.83130     100.81290       9.10000
    2935.00000      -4.20693      55.35830      17.03240      12.25000       8.44890       6.71060       7.47100       2.50400      34.67380      99.55800       9.10000
    2935.50000      -4.26569      54.78910      17.21820      12.25000       8.44390       6.73430       7.52490       2.51140      34.27410      98.39330       9.10000
    2936.00000      -4.27144      54.88750      17.11340      12.25000       8.31510       6.75800       7.58840       2.51050      34.12600      98.27420       9.10000
    2936.50000      -4.30269      55.68290      16.86830      12.25000       8.05550       6.80830       7.65250       2.51590      34.50260      98.31020       9.10000
    2937.00000      -4.31454      56.39170      16.82370      12.25000       7.92610       6.85560       7.71710       2.53090      34.73160      99.07250       9.10000
    2937.50000      -4.33269      57.60630      16.96270      12.25000       8.17130       6.83800       7.78230       2.53910      35.05500     101.79990       9.10000
