~VERSION INFORMATION
VERS.      2.0   :CWLS LOG ASCII STANDARD--VERSION 2.0
WRAP.      NO    :ONE LINE PER DEPTH STEP
~WELL INFORMATION
#MNEM.UNIT              DATA          DESCRIPTION
#================================================
STRT.FT                        346.00000 :START DEPTH
STOP.FT                      12588.00000 :STOP DEPTH
STEP.FT                          0.50000 :STEP
NULL.                         -999.00000 :NULL VALUE
COMP.   Data output from TerraStation II         : COMPANY
WELL.   Kugrua 1                                 : WELL NAME
UWI.    50-163-20002                             : WELL UWI
API.    50-163-20002                             : WELL API
LOC.    8  14N  26W                              : WELL LOCATION
DATE.   NorthSlope.W33                           : WELL DATE
FLD.    No Project Selected                      : Project NAME
~CURVE INFORMATION
#================================================
M__DEPTH.FT                  :M__DEPTH
SP      .MV                  :SP
GR      .GAPI                :GR
CALI    .IN                  :CALI
BitSize .IN                  :BitSize
LL8     .OHMM                :LL8
ILM     .OHMM                :ILM
ILD     .OHMM                :ILD
RHOB    .G/CC                :RHOB
NPHI    .%                   :NPHI
DT      .US/F                :DT
MudWgt  .LBS/GAL             :MudWgt
~PARAMETER INFORMATION
#================================================
~OTHER INFORMATION
#================================================
~A
# ...
    2098.00000     -30.83774      47.98380    -999.00000      17.50000      13.80950      13.77050      14.57480    -999.00000    -999.00000      90.29470       9.70000
    2098.50000     -33.05000      47.72390    -999.00000      17.50000      13.68800      13.80700      14.62870    -999.00000    -999.00000      91.12900       9.70000
    2099.00000     -34.40805      47.01500    -999.00000      17.50000      13.56750      13.64230      14.70420    -999.00000    -999.00000      91.48510       9.70000
    2099.50000     -35.54390      47.06660    -999.00000      17.50000      13.26790      13.34570      14.62760    -999.00000    -999.00000      91.62690       9.70000
    2100.00000     -36.45945      47.33340    -999.00000      17.50000      12.94600      13.05560      14.48850    -999.00000    -999.00000      91.47080       9.70000
    2100.50000     -37.26231      47.60020    -999.00000      17.50000      12.63190      12.77180      14.35060    -999.00000    -999.00000      91.27960       9.70000
    2101.00000     -37.38336      47.86700    -999.00000      17.50000      12.32540      12.49410      14.23660    -999.00000    -999.00000      90.92690       9.70000
    2101.50000     -37.12541      47.87940    -999.00000      17.50000      12.24810      12.22250      14.24920    -999.00000    -999.00000      90.79190       9.70000
    2102.00000     -36.52277      47.51520    -999.00000      17.50000      12.14740      11.95680      14.26180    -999.00000    -999.00000      90.57490       9.70000
    2102.50000     -35.31472      47.24290    -999.00000      17.50000      11.94050      12.12610      14.27440    -999.00000    -999.00000      90.46400       9.70000
    2103.00000     -33.82367      47.28570    -999.00000      17.50000      12.09480      12.47020      14.24540    -999.00000    -999.00000      90.43910       9.70000
    2103.50000     -31.89823      47.27090    -999.00000      17.50000      12.89090      12.82820      14.23320    -999.00000    -999.00000      89.96560       9.70000
    2104.00000     -29.21058      46.81650    -999.00000      17.50000      13.78880      13.20930      14.23940    -999.00000    -999.00000      88.39160       9.70000
    2104.50000     -26.10723      46.23000    -999.00000      17.50000      14.74920      13.60180      14.24560    -999.00000    -999.00000      86.35600       9.70000
    2105.00000     -22.29469      45.90920    -999.00000      17.50000      15.77650      13.83470      14.25180    -999.00000    -999.00000      85.88480       9.70000
    2105.50000     -18.73884      46.21240    -999.00000      17.50000      15.13120      13.58930      14.25800    -999.00000    -999.00000      86.28100       9.70000
    2106.00000     -13.48679      48.24130    -999.00000      17.50000      13.94070      13.32900      14.26430    -999.00000    -999.00000      89.73760       9.70000
    2106.50000      -9.19114      51.63300    -999.00000      17.50000      12.84380      12.71040      14.27050    -999.00000    -999.00000      94.11120       9.70000
    2107.00000      -6.66800      55.49420    -999.00000      17.50000      11.83320      11.96860      14.27670    -999.00000    -999.00000      97.65200       9.70000
    2107.50000      -4.89395      57.62610    -999.00000      17.50000      10.90220      11.27020      14.26770    -999.00000    -999.00000      99.39720       9.70000
    2108.00000      -3.76070      58.43630    -999.00000      17.50000      10.58680      10.61250      14.11570    -999.00000    -999.00000      99.23810       9.70000
    2108.50000      -3.03176      58.67380    -999.00000      17.50000      10.68090      10.77020      13.97410    -999.00000    -999.00000      98.44040       9.70000
    2109.00000      -2.49691      58.43070    -999.00000      17.50000      10.84840      10.82950      13.83970    -999.00000    -999.00000      95.02230       9.70000
    2109.50000      -2.13496      57.91050    -999.00000      17.50000      11.00850      10.82480      13.63930    -999.00000    -999.00000      92.02380       9.70000
    2110.00000      -1.87362      57.59720    -999.00000      17.50000      11.05840      10.82010      13.41550    -999.00000    -999.00000      92.38760       9.70000
    2110.50000      -1.51697      58.46330    -999.00000      17.50000      10.91040      10.76110      13.19540    -999.00000    -999.00000      93.78930       9.70000
    2111.00000      -1.45822      59.28890    -999.00000      17.50000      10.52420      10.56830      12.95030    -999.00000    -999.00000      96.61350       9.70000
    2111.50000      -1.43578      59.74860    -999.00000      17.50000      10.09060      10.28870      12.66980    -999.00000    -999.00000     102.49680       9.70000
    2112.00000      -1.43673      60.14830    -999.00000      17.50000       9.81930       9.97270      12.30780    -999.00000    -999.00000     103.37860       9.70000
    2112.50000      -1.61338      60.64060    -999.00000      17.50000       9.55530       9.66650      11.97520    -999.00000    -999.00000     103.54800       9.70000
    2113.00000      -1.62424      61.32850    -999.00000      17.50000       9.29850       9.36960      11.77910    -999.00000    -999.00000     104.54560       9.70000
    2113.50000      -1.52409      62.08070    -999.00000      17.50000       9.25800       9.52050      11.70680    -999.00000    -999.00000     104.20370       9.70000
    2114.00000      -1.28544      62.49360    -999.00000      17.50000       9.44360       9.80090      11.63490    -999.00000    -999.00000     103.15490       9.70000
    2114.50000      -1.22000      62.15490    -999.00000      17.50000       9.63290       9.94360      11.56340    -999.00000    -999.00000     101.92880       9.70000
    2115.00000      -1.17275      61.81610    -999.00000      17.50000       9.82600       9.94170      11.54620    -999.00000    -999.00000      99.95770       9.70000
    2115.50000      -1.15100      61.47740    -999.00000      17.50000       9.88370       9.93980      11.78570    -999.00000    -999.00000      98.97700       9.70000
    2116.00000      -1.13616      61.28380    -999.00000      17.50000       9.91140       9.93790      12.11300    -999.00000    -999.00000      99.32000       9.70000
    2116.50000      -1.33771      61.07760    -999.00000      17.50000       9.93670       9.91650      11.94930    -999.00000    -999.00000     100.92540       9.70000
    2117.00000      -1.46516      60.95660    -999.00000      17.50000       9.75920       9.77720      11.85450    -999.00000    -999.00000     101.49440       9.70000
    2117.50000      -1.59262      60.55770    -999.00000      17.50000       9.58490       9.71610      11.67570    -999.00000    -999.00000     104.53290       9.70000
    2118.00000      -1.52027      60.23940    -999.00000      17.50000       9.41370       9.66200      11.65990    -999.00000    -999.00000     106.89500       9.70000
    2118.50000      -1.54792      60.40420    -999.00000      17.50000       9.32640       9.60820      11.71170    -999.00000    -999.00000     105.40680       9.70000
    2119.00000      -1.54477      60.68570    -999.00000      17.50000       9.38940       9.55470      11.82440    -999.00000    -999.00000     104.59750       9.70000
    2119.50000      -1.56333      60.68050    -999.00000      17.50000       9.45270       9.50370      11.93810    -999.00000    -999.00000     103.20000       9.70000
    2120.00000      -1.48928      61.72860    -999.00000      17.50000       9.55440       9.46430      11.63500    -999.00000    -999.00000     101.03150       9.70000
    2120.50000      -1.40334      63.52680    -999.00000      17.50000       9.56490       9.42510      11.26690    -999.00000    -999.00000     100.12940       9.70000
    2121.00000      -1.31739      64.95750    -999.00000      17.50000       9.43000       9.36180      10.91040    -999.00000    -999.00000     100.06210       9.70000
    2121.50000      -1.23144      65.74230    -999.00000      17.50000       9.28690       9.24290      10.56520    -999.00000    -999.00000     101.03770       9.70000
