~VERSION INFORMATION
VERS.      2.0   :CWLS LOG ASCII STANDARD--VERSION 2.0
WRAP.      NO    :ONE LINE PER DEPTH STEP
~WELL INFORMATION
#MNEM.UNIT              DATA          DESCRIPTION
#================================================
STRT.FT                        346.00000 :START DEPTH
STOP.FT                      12588.00000 :STOP DEPTH
STEP.FT                          0.50000 :STEP
NULL.                         -999.00000 :NULL VALUE
COMP.   Data output from TerraStation II         : COMPANY
WELL.   Kugrua 1                                 : WELL NAME
UWI.    50-163-20002                             : WELL UWI
API.    50-163-20002                             : WELL API
LOC.    8  14N  26W                              : WELL LOCATION
DATE.   NorthSlope.W33                           : WELL DATE
FLD.    No Project Selected                      : Project NAME
~CURVE INFORMATION
#================================================
M__DEPTH.FT                  :M__DEPTH
SP      .MV                  :SP
GR      .GAPI                :GR
CALI    .IN                  :CALI
BitSize .IN                  :BitSize
LL8     .OHMM                :LL8
ILM     .OHMM                :ILM
ILD     .OHMM                :ILD
RHOB    .G/CC                :RHOB
NPHI    .%                   :NPHI
DT      .US/F                :DT
MudWgt  .LBS/GAL             :MudWgt
~PARAMETER INFORMATION
#================================================
~OTHER INFORMATION
#================================================
~A
# ...
    4522.00000      -4.61105      61.92420      14.44210      12.25000       8.02940       6.28330       6.33420       2.48500      37.06480      93.18250       9.50000
    4522.50000      -4.02023      62.95100      14.57400      12.25000       8.01320       6.26210       6.34790       2.48110      37.09080      94.14360       9.50000
    4523.00000      -3.52092      63.97790      14.59970      12.25000       8.13690       6.24100       6.33600       2.46480      37.06690      94.39060       9.50000
    4523.50000      -3.22031      63.83750      14.73570      12.25000       8.24760       6.21990       6.35240       2.45410      37.17410      94.10360       9.50000
    4524.00000      -3.01860      63.47550      14.48690      12.25000       8.31230       6.23570       6.41440       2.45480      37.61000      93.20400       9.50000
    4524.50000      -2.88489      63.29050      13.96660      12.25000       8.36220       6.27890       6.41630       2.45800      37.89430      92.18770       9.50000
    4525.00000      -2.82978      63.47340      13.10640      12.25000       8.36030       6.32240       6.43610       2.46720      38.51770      92.25210       9.50000
    4525.50000      -2.73196      63.74200      13.04530      12.25000       8.35830       6.36620       6.48790       2.47120      38.64150      92.94110       9.50000
    4526.00000      -2.43135      63.87510      12.91750      12.25000       8.35640       6.41030       6.50630       2.47730      38.21210      93.74430       9.50000
    4526.50000      -2.19154      64.01350      12.85110      12.25000       8.41850       6.45470       6.53290       2.47930      37.51620      94.13400       9.50000
    4527.00000      -2.05253      64.83200      12.95910      12.25000       8.65070       6.49950       6.56180       2.48000      37.44900      93.33840       9.50000
    4527.50000      -1.89592      66.09830      13.10360      12.25000       8.74230       6.54450       6.50310       2.47700      37.08820      92.12600       9.50000
    4528.00000      -1.78221      67.18760      13.35120      12.25000       8.61240       6.54260       6.33410       2.46730      35.95130      91.29020       9.50000
    4528.50000      -1.64000      67.51080      13.87150      12.25000       8.31250       6.41070       6.23840       2.45700      34.36550      92.17570       9.50000
    4529.00000      -1.42548      67.10150      14.80990      12.25000       7.82810       6.28140       6.13690       2.45840      33.93520      93.83390       9.50000
    4529.50000      -1.27457      66.70980      14.20970      12.25000       7.55110       6.15480       6.03500       2.45180      34.77430      95.73360       9.50000
    4530.00000      -1.12346      66.62980      13.60960      12.25000       7.66360       6.03720       5.93490       2.43340      36.29900      96.94660       9.50000
    4530.50000      -0.94145      66.59140      13.15110      12.25000       7.84130       5.93310       5.83640       2.42640      36.58330      97.30720       9.50000
    4531.00000      -0.86944      66.29960      13.21990      12.25000       7.87840       5.83080       5.73960       2.43480      36.04300      96.89530       9.50000
    4531.50000      -0.89183      65.31520      13.34830      12.25000       7.62880       5.73020       5.64430       2.45100      35.41410      96.00350       9.50000
    4532.00000      -0.99892      63.65070      13.30510      12.25000       7.22550       5.63130       5.55070       2.45180      35.93300      94.14850       9.50000
    4532.50000      -1.13560      62.63920      13.18290      12.25000       7.02380       5.57030       5.59740       2.45390      36.57900      93.37610       9.50000
    4533.00000      -1.12449      62.45790      13.06240      12.25000       7.10520       5.65510       5.64860       2.45830      36.66010      93.13140       9.50000
    4533.50000      -0.96238      62.88890      13.15540      12.25000       7.36540       5.74110       5.75770       2.46510      36.57220      92.70150       9.50000
    4534.00000      -0.89047      63.99140      13.29150      12.25000       7.68710       5.82840       5.81070       2.45720      36.84890      92.12690       9.50000
    4534.50000      -0.91976      65.09390      13.33330      12.25000       7.83820       5.91710       5.83840       2.45340      37.24280      91.92940       9.50000
    4535.00000      -1.03485      65.96380      13.33090      12.25000       7.72100       6.00720       5.87370       2.45270      37.44270      92.61500       9.50000
    4535.50000      -1.19303      66.27380      13.29880      12.25000       7.64750       6.09860       5.94330       2.42620      37.55830      94.27690       9.50000
    4536.00000      -1.41852      65.67680      13.55930      12.25000       7.62730       6.19130       6.00800       2.41230      37.85300      95.45040       9.50000
    4536.50000      -1.45251      64.48890      13.91410      12.25000       7.60820       6.28550       6.08060       2.42240      38.24000      95.37620       9.50000
    4537.00000      -1.58840      63.83900      13.75630      12.25000       7.74290       6.38120       6.21570       2.42150      38.86710      94.52220       9.50000
    4537.50000      -1.72669      64.34430      13.37770      12.25000       8.05440       6.47830       6.34950       2.42870      39.77450      93.17420       9.50000
    4538.00000      -1.82958      64.84970      13.39510      12.25000       8.37820       6.57680       6.44730       2.43940      40.23110      91.36110       9.50000
    4538.50000      -1.96887      65.06760      13.42100      12.25000       8.52580       6.67690       6.53610       2.44470      39.81420      90.48020       9.50000
    4539.00000      -2.12895      64.18870      13.48060      12.25000       8.52260       6.70860       6.59590       2.45110      38.56930      90.27410       9.50000
    4539.50000      -2.28914      62.91530      13.47700      12.25000       8.49680       6.70630       6.64150       2.46070      38.26190      90.16550       9.50000
    4540.00000      -2.42693      61.48710      13.90700      12.25000       8.49730       6.70390       6.64210       2.47360      38.70800      90.28540       9.50000
    4540.50000      -2.53212      60.18900      14.03700      12.25000       8.49100       6.70160       6.62280       2.47510      38.68090      90.52640       9.50000
    4541.00000      -2.68471      59.82560      14.50040      12.25000       8.39520       6.69930       6.58270       2.46480      38.10220      90.69910       9.50000
    4541.50000      -2.90820      60.23970      14.52260      12.25000       8.10410       6.69700       6.55360       2.44890      37.69840      91.25320       9.50000
    4542.00000      -3.07478      61.64050      14.19610      12.25000       8.04590       6.69460       6.50150       2.44760      37.56360      92.31720       9.50000
    4542.50000      -3.08287      62.36590      14.01430      12.25000       8.04590       6.69230       6.51460       2.44680      37.43720      91.46190       9.50000
    4543.00000      -2.93936      62.42990      14.21370      12.25000       8.04590       6.71840       6.53770       2.45060      37.66960      89.84160       9.50000
    4543.50000      -2.77495      62.14650      14.18740      12.25000       8.04590       6.76910       6.60390       2.45310      37.91760      89.26490       9.50000
    4544.00000      -2.60084      61.84540      14.34800      12.25000       8.10590       6.82010       6.67990       2.43860      38.15320      89.02380       9.50000
    4544.50000      -2.33773      61.95980      14.59220      12.25000       8.40050       6.87150       6.82520       2.43810      38.15460      88.66940       9.50000
    4545.00000      -2.17132      62.17560      14.82060      12.25000       8.70570       6.90380       6.87290       2.43370      37.59620      87.54330       9.50000
    4545.50000      -2.08830      62.07280      14.94550      12.25000       8.92010       6.86040       6.88990       2.42870      36.98780      87.11070       9.50000
