~VERSION INFORMATION
VERS.      2.0   :CWLS LOG ASCII STANDARD--VERSION 2.0
WRAP.      NO    :ONE LINE PER DEPTH STEP
~WELL INFORMATION
#MNEM.UNIT              DATA          DESCRIPTION
#================================================
STRT.FT                        346.00000 :START DEPTH
STOP.FT                      12588.00000 :STOP DEPTH
STEP.FT                          0.50000 :STEP
NULL.                         -999.00000 :NULL VALUE
COMP.   Data output from TerraStation II         : COMPANY
WELL.   Kugrua 1                                 : WELL NAME
UWI.    50-163-20002                             : WELL UWI
API.    50-163-20002                             : WELL API
LOC.    8  14N  26W                              : WELL LOCATION
DATE.   NorthSlope.W33                           : WELL DATE
FLD.    No Project Selected                      : Project NAME
~CURVE INFORMATION
#================================================
M__DEPTH.FT                  :M__DEPTH
SP      .MV                  :SP
GR      .GAPI                :GR
CALI    .IN                  :CALI
BitSize .IN                  :BitSize
LL8     .OHMM                :LL8
ILM     .OHMM                :ILM
ILD     .OHMM                :ILD
RHOB    .G/CC                :RHOB
NPHI    .%                   :NPHI
DT      .US/F                :DT
MudWgt  .LBS/GAL             :MudWgt
~PARAMETER INFORMATION
#================================================
~OTHER INFORMATION
#================================================
~A
# ...
    9346.00000      -0.11028      74.25240      10.83230       8.50000      14.30630      20.92900    1742.30969       2.58030       9.46340      76.65130      11.40000
    9346.50000       0.33088      75.14460      10.89250       8.50000      15.76040      22.56470     285.54599       2.54830       9.47240      77.33810      11.40000
    9347.00000       0.70603      73.12320      10.93150       8.50000      17.40970      21.11850      28.77930       2.52640      10.25420      77.01470      11.40000
    9347.50000       0.92838      69.76820      11.01460       8.50000      19.23160      19.08920      18.99590       2.47310      11.03600      76.79620      11.40000
    9348.00000       1.09244      67.59940      11.29590       8.50000      15.69850      16.84820      15.67000       2.42510      11.90630      77.51000      11.40000
    9348.50000       1.17200      68.66300      11.81370       8.50000      12.04370      15.16080      13.41000       2.40210      12.57010      78.56510      11.40000
    9349.00000       1.23365      71.26530      11.52370       8.50000      12.06500      14.59550      12.11180       2.44940      13.19060      79.86130      11.40000
    9349.50000       1.28260      73.03440      11.47540       8.50000      11.93270      13.31110      11.50080       2.46940      13.24720      80.66120      11.40000
    9350.00000       1.25986      73.62560      11.64710       8.50000      11.59240      12.18180      11.03140       2.56680      12.48650      80.71890      11.40000
    9350.50000       1.20302      73.70660      11.80250       8.50000      10.63640      11.53520      10.32410       2.65280      11.72580      79.81400      11.40000
    9351.00000       1.10387      73.41770      11.93930       8.50000       9.75920      11.24870       9.85370       2.64910      10.96510      78.96370      11.40000
    9351.50000       0.84453      71.75830      11.90140       8.50000      13.05590      11.39070       9.70400       2.57860      10.45580      77.71830      11.40000
    9352.00000       0.52098      68.99540      10.87550       8.50000      19.87320      11.54590       9.72670       2.58340      10.69670      76.53700      11.40000
    9352.50000       0.21923      67.14460      11.24130       8.50000      20.98970      11.53030       9.80500       2.53500      11.35790      75.55800      11.40000
    9353.00000      -0.06151      67.38580      11.89280       8.50000      17.98250      11.26830      10.14730       2.46080      12.21850      75.14770      11.40000
    9353.50000      -0.25925      69.32030      12.19960       8.50000      12.72330      10.99790      10.50160       2.41630      13.07920      76.06550      11.40000
    9354.00000      -0.32720      72.40340      12.39500       8.50000      10.61810      10.61750      10.26360       2.42290      13.47190      78.83600      11.40000
    9354.50000      -0.27044      74.13200      12.56900       8.50000      11.03360      10.24280       9.90930       2.45450      12.89730      80.95440      11.40000
    9355.00000      -0.21489      74.71060      12.43320       8.50000      11.46550       9.88400       9.56730       2.46780      12.66090      81.29480      11.40000
    9355.50000      -0.21113      75.50500      12.16550       8.50000      11.91420       9.54140       9.23700       2.48740      12.89420      81.19190      11.40000
    9356.00000      -0.21068      77.00300      12.18520       8.50000      11.99230       9.21060       8.91820       2.49330      13.25700      81.39550      11.40000
    9356.50000      -0.10442      78.19180      12.11950       8.50000      10.11000       8.89140       8.68960       2.47680      13.61990      81.85850      11.40000
    9357.00000       0.03243      78.32190      12.27380       8.50000       8.65200       8.67900       8.49430       2.43170      13.92550      82.24210      11.40000
    9357.50000       0.17598      77.79010      13.31590       8.50000       9.08350       8.60370       8.32490       2.40560      13.50580      82.80950      11.40000
    9358.00000       0.32974      75.97120      13.11190       8.50000       9.33540       8.52900       8.28030       2.44680      12.96230      83.45780      11.40000
    9358.50000       0.45940      73.89450      12.50520       8.50000       9.29590       8.51590       8.33710       2.48790      12.38440      83.63450      11.40000
    9359.00000       0.58065      72.23620      12.54530       8.50000       9.07680       8.56350       8.47180       2.50990      11.64220      83.37920      11.40000
    9359.50000       0.65371      70.97220      12.96550       8.50000       9.26030       8.61140       8.79230       2.53700      10.90000      82.97120      11.40000
    9360.00000       0.71136      69.70230      13.55840       8.50000      10.62720       8.86380       9.26020       2.54740      10.15780      82.83290      11.40000
    9360.50000       0.74182      68.30780      13.64000       8.50000      12.19600       9.37170       9.75300       2.55540       9.66680      82.59610      11.40000
    9361.00000       0.77707      68.15960      12.66690       8.50000      13.99630       9.90870      10.27200       2.57300       9.30060      81.53110      11.40000
    9361.50000       0.82153      69.57370      11.89510       8.50000      14.17850      10.47650      10.81870       2.58600       9.21670      79.76050      11.40000
    9362.00000       0.87498      71.94330      11.52240       8.50000      13.00450      11.07680      11.38220       2.59650       9.13290      78.89070      11.40000
    9362.50000       1.00963      73.05640      11.74880       8.50000      11.92770      11.77540      11.90620       2.59360       9.04900      78.89510      11.40000
    9363.00000       1.00079      72.32630      12.30740       8.50000      12.39200      12.56370      12.40950       2.59600       8.89710      79.23170      11.40000
    9363.50000       0.82625      69.68230      12.27370       8.50000      14.25150      13.40470      12.44660       2.61370       8.82680      79.18760      11.40000
    9364.00000       0.54420      67.68590      11.98850       8.50000      16.39010      13.49620      12.47660       2.59040       8.93030      78.36580      11.40000
    9364.50000       0.22106      67.75060      11.81750       8.50000      15.89070      13.22190      12.47660       2.60660       9.33060      77.53520      11.40000
    9365.00000      -0.16069      68.09580      11.86980       8.50000      15.06760      12.95310      12.30790       2.61010       9.69520      77.25080      11.40000
    9365.50000      -0.52333      67.88240      12.08120       8.50000      13.72920      12.68990      12.00420       2.60040       9.96740      77.38180      11.40000
    9366.00000      -0.37828      68.21600      12.14610       8.50000      12.70490      12.43200      11.70810       2.61340      10.34370      77.96050      11.40000
    9366.50000      -0.09102      69.39420      12.09730       8.50000      12.24580      12.17930      11.41920       2.60000      10.65850      78.48120      11.40000
    9367.00000       0.14823      72.25550      12.18930       8.50000      11.85160      11.93170      11.13570       2.57620      10.94430      78.91410      11.40000
    9367.50000       0.33659      74.85820      12.27490       8.50000      11.44970      11.68920      10.78860       2.55250      11.22020      79.34580      11.40000
    9368.00000       0.44754      76.16660      12.40870       8.50000      11.02580      11.17040      10.45230       2.52700      11.49050      79.76960      11.40000
    9368.50000       0.48480      76.17360      12.47860       8.50000      10.61770      10.66880      10.12650       2.50030      11.76090      80.42810      11.40000
    9369.00000       0.49325      75.25600      12.49800       8.50000      10.50400      10.18980       9.81090       2.50580      12.03120      80.89010      11.40000
    9369.50000       0.47331      74.27000      12.30040       8.50000      11.02070       9.73220       9.50510       2.50040      12.30160      81.03770      11.40000
