~Version Information Block
VERS .                 2.00:  CWLS LOG ASCII STANDARD - VERSION 2.00
WRAP .                   NO:  One line per depth step
~Well Information Block
#MNEM.UNIT        Data Type   Information
#---------- ----------------  -----------
STRT .FT             200.00:  START DEPTH
STOP .FT            2799.00:  STOP DEPTH
STEP .FT               0.50:  STEP
NULL .              -999.25:  NULL VALUE
COMP .                     :  COMPANY
WELL .              19/08-1:  WELL
FLD  .                     :  FIELD
LOC  .                     :  LOCATION
CTRY .                     :  COUNTRY
STAT .                     :  STATE
CNTY .                     :  COUNTY
SRVC .                     :  SERVICE COMPANY
DATE .                     :  DATE
API  .                     :  API NUMBER
UWI  .                     :  UNIQUE WELL ID
~Curve Information Block
#MNEM.UNIT         API CODE   Curve Description
#---------- ----------------  -----------------
DEPTH.FT       99 995 99  1:  Depth
DTC  .US/F     99 995 99  1:  Compressional Wave Slowness
DTS  .US/F     60 530 16  1:  Shear Wave Slowness
GR   .GAPI     30 310  1  1:  Gamma Ray counts
K    .%        31 719 99  1:  Potassium
KTH  .GAPI     31 995 99  1:  Potassium Plus Thorium
RD   .OHMM      1 220 10  1:  Logarithmic Resistivity from ED  ID Depthshifted Depthshifted
RM   .OHMM                 :  Mud resistivity
RS   .OHMM      1 220  9  1:  Shallow resistivity Depthshifted
RTHK .----     31 995 99  1:  Ratio of Thorium to Potassium (TH/K)
RTHU .PPM      31 995 99  1:  Ratio of Thorium to Uranium (TH/U)
RUK  .----     31 995 99  1:  Ratio of Uranium to Potassium (U/K)
TH   .PPM      31 790 99  1:  Thorium
UR   .PPM      31 792 99  1:  Uranium
~Parameter Information Block
#MNEM.UNIT            Value   Description
#---------- ----------------  -----------
PROJECT.     geolog_uk@uxbvllapp02:  
SET  .                 WIRE:  
~Other Information Block
# 
~A       DEPTH            DTC            DTS             GR              K            KTH             RD             RM             RS           RTHK           RTHU            RUK             TH             UR 
# ...
       2462.00       121.1300       283.5580        57.8340         4.7250        56.7880         0.6792      0.0714456         0.7304         0.3200         0.0000      0.0000000         1.5130       0.000000
       2462.50       122.0730       279.6740        56.7820         4.7610        55.8050         0.6853      0.0714404         0.7318         0.3180         0.0000      0.0000000         1.5150       0.000000
       2463.00       121.9550       278.0610        55.8220         4.7670        55.0170         0.6968      0.0714353         0.7374         0.3210         0.0000      0.0000000         1.5290       0.000000
       2463.50       120.8520       275.6810        55.9110         4.7210        55.1510         0.7052      0.0714302         0.7443         0.3440         0.0000      0.0000000         1.6220       0.000000
       2464.00       119.3710       273.9260        56.7880         4.6470        55.9240         0.7069      0.0714251         0.7477         0.3930         0.0000      0.0000000         1.8250       0.000000
       2464.50       119.9550       273.0250        57.2470         4.5740        56.1450         0.7115      0.0714200         0.7498         0.4650         0.0000      0.0000000         2.1280       0.000000
       2465.00       119.5030       270.7490        57.0850         4.5080        55.8380         0.7201      0.0714149         0.7536         0.5360         0.0000      0.0000000         2.4180       0.000000
       2465.50       118.6490       267.9300        56.8540         4.4740        55.7540         0.7273      0.0714098         0.7594         0.5880         0.0000      0.0000000         2.6310       0.000000
       2466.00       117.4660       267.2990        57.1460         4.4880        56.2860         0.7307      0.0714047         0.7627         0.6260         0.0000      0.0000000         2.8080       0.000000
       2466.50       116.1850       268.1830        57.7150         4.5300        56.8660         0.7355      0.0713996         0.7666         0.6410         0.0000      0.0000000         2.9030       0.000000
       2467.00       115.6630       266.8040        58.2420         4.5660        57.2680         0.7532      0.0713945         0.7796         0.6230         0.0000      0.0000000         2.8450       0.000000
       2467.50       115.0800       266.5670        57.9140         4.5820        56.8870         0.8137      0.0713894         0.8297         0.5820         0.0000      0.0000000         2.6690       0.000000
       2468.00       114.4690       267.3130        56.7500         4.5920        55.6450         0.9635      0.0713843         0.9704         0.5440         0.0000      0.0000000         2.4970       0.000000
       2468.50       113.9780       266.5210        55.7330         4.6030        54.4540         1.2254      0.0713792         1.2441         0.5100         0.0000      0.0000000         2.3490       0.000000
       2469.00       113.0070       267.0760        55.1470         4.6080        53.8680         1.4885      0.0713741         1.5699         0.4780         0.0000      0.0000000         2.2050       0.000000
       2469.50       111.1200       265.9440        54.5050         4.6140        53.5540         1.5465      0.0713690         1.7148         0.4530         0.0000      0.0000000         2.0880       0.000000
       2470.00       107.3170       262.3110        54.0280         4.6230        53.4400         1.3415      0.0713639         1.5546         0.4410         0.0000      0.0000000         2.0400       0.000000
       2470.50       104.1800       256.8910        54.6260         4.6230        54.0840         1.0356      0.0713588         1.2291         0.4530         0.0000      0.0000000         2.0940       0.000000
       2471.00        99.6030       243.6050        55.2900         4.5880        54.5790         0.8100      0.0713537         0.9631         0.4760         0.0000      0.0000000         2.1820       0.000000
       2471.50        94.4920       227.8220        54.8120         4.5410        54.0900         0.7014      0.0713486         0.8306         0.4990         0.0000      0.0000000         2.2640       0.000000
       2472.00        83.4170       203.0540        54.6640         4.4840        54.1270         0.6721      0.0713435         0.7901         0.4990         0.0000      0.0000000         2.2380       0.000000
       2472.50        84.0450       182.6930        56.2950         4.4190        55.8010         0.6817      0.0713384         0.7933         0.4740         0.0000      0.0000000         2.0960       0.000000
       2473.00        89.8130       176.2550        57.6620         4.3930        56.9160         0.7065      0.0713333         0.8157         0.4400         0.0000      0.0000000         1.9320       0.000000
       2473.50       104.8910       177.5120        57.4640         4.4260        56.3680         0.7370      0.0713282         0.8487         0.4020         0.0000      0.0000000         1.7800       0.000000
       2474.00       117.2800       188.5020        57.2290         4.5060        55.8580         0.7680      0.0713231         0.8863         0.3740         0.0000      0.0000000         1.6870       0.000000
       2474.50       121.5900       204.5260        57.8800         4.6040        56.3270         0.7863      0.0713180         0.9126         0.3690         0.0000      0.0000000         1.7000       0.000000
       2475.00       120.7570       217.0520        58.5970         4.7050        57.0650         0.7826      0.0713129         0.9132         0.3780         0.0000      0.0000000         1.7790       0.000000
       2475.50       118.2300       235.5930        58.2040         4.7860        56.9760         0.7603      0.0713078         0.8895         0.3820         0.0000      0.0000000         1.8280       0.000000
       2476.00       115.6560       244.2990        56.8260         4.8050        55.9570         0.7363      0.0713027         0.8590         0.3760      1788.7290      0.0000000         1.8060       0.001000
       2476.50       114.1310       249.1130        55.6120         4.7380        54.9460         0.7250      0.0712976         0.8407         0.3640       368.1760      0.0010000         1.7230       0.005000
       2477.00       113.7660       247.1990        55.1090         4.6290        54.5960         0.7258      0.0712925         0.8435         0.3650       215.6030      0.0020000         1.6910       0.008000
       2477.50       113.2020       247.6230        55.3830         4.5190        55.0560         0.7332      0.0712874         0.8566         0.3900       203.5270      0.0020000         1.7600       0.009000
       2478.00       112.7630       248.4030        56.3580         4.4070        56.0700         0.7421      0.0712823         0.8688         0.4330       227.8630      0.0020000         1.9060       0.008000
       2478.50       112.5720       249.9980        57.4090         4.3480        56.9280         0.7466      0.0712773         0.8736         0.4680       266.1350      0.0020000         2.0360       0.008000
       2479.00       113.3300       246.2940        57.9790         4.3770        57.3540         0.7461      0.0712722         0.8749         0.4820       364.9120      0.0010000         2.1080       0.006000
       2479.50       114.4930       249.1650        57.9490         4.4550        57.3480         0.7487      0.0712671         0.8759         0.4750       984.5510      0.0000000         2.1180       0.002000
       2480.00       116.2290       251.8530        57.6760         4.5410        57.1940         0.7517      0.0712620         0.8778         0.4440     15040.1123      0.0000000         2.0150       0.000000
       2480.50       117.4180       256.9100        57.3270         4.5960        57.0380         0.7493      0.0712569         0.8771         0.4020         0.0000      0.0000000         1.8480       0.000000
       2481.00       118.2890       262.0870        56.4240         4.6070        56.3020         0.7445      0.0712518         0.8725         0.3640     17602.9863      0.0000000         1.6790       0.000000
