~Version Information Block
VERS .                 2.00:  CWLS LOG ASCII STANDARD - VERSION 2.00
WRAP .                   NO:  One line per depth step
~Well Information Block
#MNEM.UNIT        Data Type   Information
#---------- ----------------  -----------
STRT .FT             200.00:  START DEPTH
STOP .FT            2799.00:  STOP DEPTH
STEP .FT               0.50:  STEP
NULL .              -999.25:  NULL VALUE
COMP .                     :  COMPANY
WELL .              19/08-1:  WELL
FLD  .                     :  FIELD
LOC  .                     :  LOCATION
CTRY .                     :  COUNTRY
STAT .                     :  STATE
CNTY .                     :  COUNTY
SRVC .                     :  SERVICE COMPANY
DATE .                     :  DATE
API  .                     :  API NUMBER
UWI  .                     :  UNIQUE WELL ID
~Curve Information Block
#MNEM.UNIT         API CODE   Curve Description
#---------- ----------------  -----------------
DEPTH.FT       99 995 99  1:  Depth
DTC  .US/F     99 995 99  1:  Compressional Wave Slowness
DTS  .US/F     60 530 16  1:  Shear Wave Slowness
GR   .GAPI     30 310  1  1:  Gamma Ray counts
K    .%        31 719 99  1:  Potassium
KTH  .GAPI     31 995 99  1:  Potassium Plus Thorium
RD   .OHMM      1 220 10  1:  Logarithmic Resistivity from ED  ID Depthshifted Depthshifted
RM   .OHMM                 :  Mud resistivity
RS   .OHMM      1 220  9  1:  Shallow resistivity Depthshifted
RTHK .----     31 995 99  1:  Ratio of Thorium to Potassium (TH/K)
RTHU .PPM      31 995 99  1:  Ratio of Thorium to Uranium (TH/U)
RUK  .----     31 995 99  1:  Ratio of Uranium to Potassium (U/K)
TH   .PPM      31 790 99  1:  Thorium
UR   .PPM      31 792 99  1:  Uranium
~Parameter Information Block
#MNEM.UNIT            Value   Description
#---------- ----------------  -----------
PROJECT.     geolog_uk@uxbvllapp02:  
SET  .                 WIRE:  
~Other Information Block
# 
~A       DEPTH            DTC            DTS             GR              K            KTH             RD             RM             RS           RTHK           RTHU            RUK             TH             UR 
# ...
       1662.50       128.0080       292.0690        60.7500         4.7010        61.0440         0.7822      0.0806759         0.7815         0.3440       104.7660      0.0030000         1.6160       0.015000
       1663.00       128.8440       297.7320        62.0110         4.8290        62.3470         0.7874      0.0806694         0.7855         0.3650       172.6220      0.0020000         1.7640       0.010000
       1663.50       129.1550       303.5570        61.5250         4.8780        61.8730         0.7988      0.0806629         0.7977         0.3820       265.4870      0.0010000         1.8640       0.007000
       1664.00       129.0660       310.9260        61.6240         4.8640        61.8700         0.8072      0.0806564         0.8098         0.3920       215.3130      0.0020000         1.9050       0.009000
       1664.50       128.7960       315.8830        62.9390         4.7730        63.0620         0.8089      0.0806499         0.8164         0.3940       148.1160      0.0030000         1.8800       0.013000
       1665.00       129.6520       323.8070        63.8560         4.6790        64.0380         0.8081      0.0806433         0.8152         0.3900       127.5810      0.0030000         1.8260       0.014000
       1665.50       131.0880       334.9060        63.5500         4.6200        63.8920         0.8026      0.0806368         0.8060         0.3730       105.3020      0.0040000         1.7220       0.016000
       1666.00       132.1410       357.1970        62.2770         4.5870        62.6830         0.7885      0.0806303         0.7915         0.3400        75.3980      0.0050000         1.5610       0.021000
       1666.50       132.6360       365.9330        61.1570         4.5860        61.5600         0.7708      0.0806238         0.7738         0.2980        59.2860      0.0050000         1.3680       0.023000
       1667.00       132.7150       361.0810        61.2900         4.6020        61.7350         0.7537      0.0806173         0.7558         0.2610        54.9850      0.0050000         1.1990       0.022000
       1667.50       133.4000       348.0400        60.8490         4.6100        61.3260         0.7421      0.0806108         0.7441         0.2240        50.9450      0.0040000         1.0320       0.020000
       1668.00       133.7430       337.8770        59.2970         4.6080        59.6950         0.7527      0.0806043         0.7502         0.1970        51.1220      0.0040000         0.9060       0.018000
       1668.50       134.5010       351.3910        58.6070         4.5930        58.8680         0.7910      0.0805978         0.7844         0.2040        60.7320      0.0030000         0.9370       0.015000
       1669.00       135.4690       372.9650        59.6490         4.5630        59.9110         0.8338      0.0805913         0.8331         0.2480        82.8910      0.0030000         1.1310       0.014000
       1669.50       136.9310       399.4230        60.7840         4.5150        61.1500         0.8615      0.0805848         0.8741         0.3180        89.2660      0.0040000         1.4340       0.016000
       1670.00       138.2160       413.3850        61.5000         4.4860        61.8690         0.8685      0.0805783         0.8942         0.3770        89.8830      0.0040000         1.6900       0.019000
       1670.50       140.7910       406.2490        62.2510         4.5040        62.5330         0.8573      0.0805718         0.8915         0.4100       105.2320      0.0040000         1.8460       0.018000
       1671.00       142.1260       398.9100        63.4810         4.5270        63.7310         0.8325      0.0805653         0.8684         0.4320       115.5700      0.0040000         1.9570       0.017000
       1671.50       140.8680       405.6010        64.4280         4.5370        64.6830         0.8065      0.0805588         0.8398         0.4460       125.8080      0.0040000         2.0250       0.016000
       1672.00       137.4750       421.3240        63.6850         4.5520        63.9060         0.7887      0.0805523         0.8208         0.4530       171.1640      0.0030000         2.0600       0.012000
       1672.50       135.8880       423.2960        61.5670         4.5630        61.7500         0.7807      0.0805458         0.8163         0.4590       355.8780      0.0010000         2.0950       0.006000
       1673.00       133.3980       409.3050        59.3540         4.5710        59.5000         0.7845      0.0805393         0.8223         0.4560       622.7290      0.0010000         2.0820       0.003000
       1673.50       132.1340       388.3670        58.4890         4.5780        58.6090         0.7994      0.0805328         0.8374         0.4320       578.0050      0.0010000         1.9760       0.003000
       1674.00       130.6270       365.7070        58.9550         4.5950        59.1100         0.8200      0.0805263         0.8552         0.3920       569.3910      0.0010000         1.7990       0.003000
       1674.50       130.0760       347.5330        59.2330         4.6310        59.4730         0.8337      0.0805198         0.8669         0.3440       552.8930      0.0010000         1.5950       0.003000
       1675.00       129.5400       333.9700        59.1450         4.6740        59.4460         0.8341      0.0805133         0.8680         0.3030       431.4780      0.0010000         1.4150       0.003000
       1675.50       128.5310       323.8610        59.5320         4.7160        59.8300         0.8178      0.0805068         0.8554         0.2710       438.9300      0.0010000         1.2800       0.003000
       1676.00       127.4190       322.3730        60.6850         4.7350        60.9270         0.7916      0.0805003         0.8332         0.2520       442.2470      0.0010000         1.1940       0.003000
       1676.50       125.7380       319.1240        61.2700         4.7440        61.4340         0.7700      0.0804938         0.8111         0.2410       195.5910      0.0010000         1.1440       0.006000
       1677.00       123.4880       321.0510        61.0810         4.7230        61.1340         0.7590      0.0804873         0.7973         0.2330        51.7590      0.0040000         1.0980       0.021000
       1677.50       121.2680       318.4500        60.9950         4.6570        60.9210         0.7607      0.0804808         0.7933         0.2250        20.8400      0.0110000         1.0480       0.050000
       1678.00       119.8200       315.2090        61.4580         4.5800        61.2840         0.7691      0.0804744         0.7993         0.2240        13.6400      0.0160000         1.0260       0.075000
       1678.50       119.8260       307.7430        62.9880         4.5110        62.6900         0.7790      0.0804679         0.8081         0.2420        11.5460      0.0210000         1.0940       0.095000
       1679.00       121.5390       302.4070        65.8940         4.4540        65.4520         0.7854      0.0804614         0.8126         0.2960        11.3360      0.0260000         1.3190       0.116000
       1679.50       124.5970       302.9530        68.2620         4.4070        67.7630         0.7860      0.0804549         0.8121         0.3500        11.7400      0.0300000         1.5410       0.131000
       1680.00       127.3280       308.1300        67.8510         4.3510        67.3240         0.7815      0.0804484         0.8075         0.3880        12.4530      0.0310000         1.6880       0.136000
       1680.50       129.1520       322.8590        65.4570         4.2840        64.9200         0.7720      0.0804419         0.8016         0.4420        14.8770      0.0300000         1.8950       0.127000
       1681.00       130.2620       346.0880        63.3980         4.2440        62.9530         0.7638      0.0804355         0.7965         0.5030        19.0270      0.0260000         2.1350       0.112000
       1681.50       131.2600       357.5400        62.7500         4.2630        62.5450         0.7630      0.0804290         0.7951         0.5650        26.8180      0.0210000         2.4080       0.090000
