~Version Information Block
VERS .                 2.00:  CWLS LOG ASCII STANDARD - VERSION 2.00
WRAP .                   NO:  One line per depth step
~Well Information Block
#MNEM.UNIT        Data Type   Information
#---------- ----------------  -----------
STRT .FT             200.00:  START DEPTH
STOP .FT            2799.00:  STOP DEPTH
STEP .FT               0.50:  STEP
NULL .              -999.25:  NULL VALUE
COMP .                     :  COMPANY
WELL .              19/08-1:  WELL
FLD  .                     :  FIELD
LOC  .                     :  LOCATION
CTRY .                     :  COUNTRY
STAT .                     :  STATE
CNTY .                     :  COUNTY
SRVC .                     :  SERVICE COMPANY
DATE .                     :  DATE
API  .                     :  API NUMBER
UWI  .                     :  UNIQUE WELL ID
~Curve Information Block
#MNEM.UNIT         API CODE   Curve Description
#---------- ----------------  -----------------
DEPTH.FT       99 995 99  1:  Depth
DTC  .US/F     99 995 99  1:  Compressional Wave Slowness
DTS  .US/F     60 530 16  1:  Shear Wave Slowness
GR   .GAPI     30 310  1  1:  Gamma Ray counts
K    .%        31 719 99  1:  Potassium
KTH  .GAPI     31 995 99  1:  Potassium Plus Thorium
RD   .OHMM      1 220 10  1:  Logarithmic Resistivity from ED  ID Depthshifted Depthshifted
RM   .OHMM                 :  Mud resistivity
RS   .OHMM      1 220  9  1:  Shallow resistivity Depthshifted
RTHK .----     31 995 99  1:  Ratio of Thorium to Potassium (TH/K)
RTHU .PPM      31 995 99  1:  Ratio of Thorium to Uranium (TH/U)
RUK  .----     31 995 99  1:  Ratio of Uranium to Potassium (U/K)
TH   .PPM      31 790 99  1:  Thorium
UR   .PPM      31 792 99  1:  Uranium
~Parameter Information Block
#MNEM.UNIT            Value   Description
#---------- ----------------  -----------
PROJECT.     geolog_uk@uxbvllapp02:  
SET  .                 WIRE:  
~Other Information Block
# 
~A       DEPTH            DTC            DTS             GR              K            KTH             RD             RM             RS           RTHK           RTHU            RUK             TH             UR 
# ...
       1994.00       118.6040       239.8270        61.3680         3.9840        55.8710         1.0835      0.0765740         1.1835         0.2870        17.0850      0.0170000         1.1440       0.067000
       1994.50       120.5300       241.9110        61.4420         4.0740        56.1780         1.2507      0.0765681         1.3879         0.2850        26.7350      0.0110000         1.1600       0.043000
       1995.00       125.5890       253.2470        60.9470         4.1610        56.0210         1.3004      0.0765622         1.4775         0.2880        63.3580      0.0050000         1.1980       0.019000
       1995.50       130.5440       263.3310        59.4980         4.1910        54.4380         1.1948      0.0765564         1.3839         0.3210       350.1410      0.0010000         1.3450       0.004000
       1996.00       136.9040       276.3910        58.1670         4.1680        52.5510         1.0187      0.0765505         1.1861         0.3700     13505.2715      0.0000000         1.5440       0.000000
       1996.50       138.5300       278.6720        58.4570         4.1490        52.6350         0.8692      0.0765446         1.0044         0.4080      4398.3311      0.0000000         1.6940       0.000000
       1997.00       138.2690       272.4770        59.3010         4.1220        53.8270         0.7855      0.0765388         0.8958         0.4290       540.5990      0.0010000         1.7680       0.003000
       1997.50       139.7680       258.3660        59.3870         4.0960        54.3910         0.7554      0.0765329         0.8508         0.4220       227.8790      0.0020000         1.7280       0.008000
       1998.00       141.0600       245.9950        59.1500         4.1000        54.2660         0.7431      0.0765270         0.8335         0.3960       164.1640      0.0020000         1.6240       0.010000
       1998.50       142.3410       242.9260        60.2280         4.1370        54.9980         0.7276      0.0765212         0.8212         0.3570       141.2330      0.0030000         1.4770       0.010000
       1999.00       140.8000       242.3050        62.6170         4.2470        56.7930         0.7125      0.0765153         0.8119         0.2960       139.4880      0.0020000         1.2570       0.009000
       1999.50       136.8390       247.6110        64.7130         4.3750        58.3560         0.7038      0.0765094         0.8056         0.2560       176.1360      0.0010000         1.1180       0.006000
       2000.00       128.7510       251.7700        65.3980         4.4500        58.8410         0.7048      0.0765036         0.8023         0.2500       303.1700      0.0010000         1.1110       0.004000
       2000.50       124.9050       268.4910        65.0220         4.5160        58.6800         0.7122      0.0764977         0.8011         0.2470      1047.2010      0.0000000         1.1150       0.001000
       2001.00       124.0380       281.5580        63.9390         4.5620        57.9550         0.7193      0.0764919         0.8019         0.2470         0.0000      0.0000000         1.1260       0.000000
       2001.50       125.6750       291.2810        63.2060         4.5850        57.3740         0.7200      0.0764860         0.8011         0.2510         0.0000      0.0000000         1.1490       0.000000
       2002.00       127.9840       290.8820        63.2150         4.5980        57.4390         0.7065      0.0764801         0.7893         0.2540         0.0000      0.0000000         1.1700       0.000000
       2002.50       131.2130       287.5600        63.5610         4.6120        57.7930         0.6824      0.0764743         0.7645         0.2600         0.0000      0.0000000         1.2000       0.000000
       2003.00       134.9610       283.6110        63.4280         4.6370        57.5470         0.6583      0.0764684         0.7349         0.2740         0.0000      0.0000000         1.2700       0.000000
       2003.50       134.5880       279.7790        63.3670         4.6430        57.2680         0.6361      0.0764626         0.7103         0.3030         0.0000      0.0000000         1.4060       0.000000
       2004.00       130.5660       279.9650        63.5620         4.6230        57.4280         0.6241      0.0764567         0.6954         0.3350         0.0000      0.0000000         1.5460       0.000000
       2004.50       128.2130       290.6460        63.6220         4.6150        57.6240         0.6248      0.0764509         0.6913         0.3640         0.0000      0.0000000         1.6780       0.000000
       2005.00       129.0510       305.2920        63.4260         4.6250        57.5200         0.6358      0.0764450         0.6955         0.3950         0.0000      0.0000000         1.8280       0.000000
       2005.50       133.2030       325.7420        63.4250         4.6380        57.7000         0.6560      0.0764391         0.7132         0.4190         0.0000      0.0000000         1.9430       0.000000
       2006.00       138.0070       328.9080        63.9380         4.6530        58.6790         0.6905      0.0764333         0.7475         0.4440         0.0000      0.0000000         2.0650       0.000000
       2006.50       142.1980       340.6220        64.7810         4.6630        59.6820         0.7292      0.0764275         0.7880         0.4830         0.0000      0.0000000         2.2530       0.000000
       2007.00       143.8090       363.4290        65.8760         4.6590        60.3450         0.7511      0.0764216         0.8164         0.5220         0.0000      0.0000000         2.4300       0.000000
       2007.50       143.6370       365.2140        66.4060         4.6480        60.3470         0.7476      0.0764158         0.8235         0.5340         0.0000      0.0000000         2.4830       0.000000
       2008.00       140.9000       385.8240        66.0420         4.6320        59.8810         0.7353      0.0764099         0.8141         0.5290         0.0000      0.0000000         2.4510       0.000000
       2008.50       137.8110       395.0070        65.7410         4.6110        59.8380         0.7268      0.0764041         0.8022         0.5170         0.0000      0.0000000         2.3850       0.000000
       2009.00       135.0600       410.6990        66.5400         4.6060        60.8760         0.7287      0.0763982         0.7956         0.4750         0.0000      0.0000000         2.1860       0.000000
       2009.50       133.6980       398.3430        68.2370         4.6290        62.3670         0.7362      0.0763924         0.7932         0.4090         0.0000      0.0000000         1.8940       0.000000
       2010.00       133.5530       406.6540        68.8580         4.6830        62.5380         0.7433      0.0763865         0.7912         0.3630         0.0000      0.0000000         1.6980       0.000000
       2010.50       135.6710       390.2780        67.6020         4.7670        61.2760         0.7494      0.0763807         0.7928         0.3340         0.0000      0.0000000         1.5900       0.000000
       2011.00       135.3140       385.2510        65.6320         4.8640        59.7410         0.7554      0.0763748         0.7966         0.3100         0.0000      0.0000000         1.5060       0.000000
       2011.50       136.8020       386.5200        64.5450         4.9480        58.8060         0.7587      0.0763690         0.7997         0.2930         0.0000      0.0000000         1.4520       0.000000
       2012.00       136.7760       397.1390        64.8740         5.0110        58.7630         0.7581      0.0763632         0.8000         0.2800         0.0000      0.0000000         1.4010       0.000000
       2012.50       136.2070       404.2280        65.9420         5.0390        59.6760         0.7562      0.0763573         0.7982         0.2600         0.0000      0.0000000         1.3110       0.000000
       2013.00       133.9050       407.6220        65.9880         5.0200        60.1120         0.7587      0.0763515         0.7998         0.2430         0.0000      0.0000000         1.2200       0.000000
