~Version Information Block
VERS .                 2.00:  CWLS LOG ASCII STANDARD - VERSION 2.00
WRAP .                   NO:  One line per depth step
~Well Information Block
#MNEM.UNIT        Data Type   Information
#---------- ----------------  -----------
STRT .FT             200.00:  START DEPTH
STOP .FT            2799.00:  STOP DEPTH
STEP .FT               0.50:  STEP
NULL .              -999.25:  NULL VALUE
COMP .                     :  COMPANY
WELL .              19/08-1:  WELL
FLD  .                     :  FIELD
LOC  .                     :  LOCATION
CTRY .                     :  COUNTRY
STAT .                     :  STATE
CNTY .                     :  COUNTY
SRVC .                     :  SERVICE COMPANY
DATE .                     :  DATE
API  .                     :  API NUMBER
UWI  .                     :  UNIQUE WELL ID
~Curve Information Block
#MNEM.UNIT         API CODE   Curve Description
#---------- ----------------  -----------------
DEPTH.FT       99 995 99  1:  Depth
DTC  .US/F     99 995 99  1:  Compressional Wave Slowness
DTS  .US/F     60 530 16  1:  Shear Wave Slowness
GR   .GAPI     30 310  1  1:  Gamma Ray counts
K    .%        31 719 99  1:  Potassium
KTH  .GAPI     31 995 99  1:  Potassium Plus Thorium
RD   .OHMM      1 220 10  1:  Logarithmic Resistivity from ED  ID Depthshifted Depthshifted
RM   .OHMM                 :  Mud resistivity
RS   .OHMM      1 220  9  1:  Shallow resistivity Depthshifted
RTHK .----     31 995 99  1:  Ratio of Thorium to Potassium (TH/K)
RTHU .PPM      31 995 99  1:  Ratio of Thorium to Uranium (TH/U)
RUK  .----     31 995 99  1:  Ratio of Uranium to Potassium (U/K)
TH   .PPM      31 790 99  1:  Thorium
UR   .PPM      31 792 99  1:  Uranium
~Parameter Information Block
#MNEM.UNIT            Value   Description
#---------- ----------------  -----------
PROJECT.     geolog_uk@uxbvllapp02:  
SET  .                 WIRE:  
~Other Information Block
# 
~A       DEPTH            DTC            DTS             GR              K            KTH             RD             RM             RS           RTHK           RTHU            RUK             TH             UR 
# ...
       1428.50       150.9800       467.7100        67.8680         4.5950        65.1350         0.9099      0.0838464         1.1027         0.7620      6368.7651      0.0000000         3.5020       0.001000
       1429.00       149.2200       465.7040        68.5200         4.6160        65.7250         0.9001      0.0838394         1.1013         0.6870      2985.7229      0.0000000         3.1730       0.001000
       1429.50       147.1040       464.1830        68.4800         4.6260        65.6110         0.9044      0.0838323         1.1082         0.5880      1693.4950      0.0000000         2.7220       0.002000
       1430.00       145.0260       457.5290        69.1300         4.5980        66.6420         0.9303      0.0838253         1.1343         0.4840       585.3580      0.0010000         2.2250       0.004000
       1430.50       143.2790       458.0230        69.5460         4.5410        67.4280         0.9682      0.0838183         1.1758         0.4080       168.0610      0.0020000         1.8520       0.011000
       1431.00       141.8900       452.2590        68.6190         4.4430        66.1400         1.0072      0.0838112         1.2224         0.3980        78.9570      0.0050000         1.7680       0.022000
       1431.50       140.0060       438.7320        67.6990         4.3590        64.6610         1.0408      0.0838042         1.2640         0.4190        60.4130      0.0070000         1.8280       0.030000
       1432.00       138.1380       441.0400        67.7110         4.3350        64.6750         1.0584      0.0837972         1.2833         0.4300        59.3600      0.0070000         1.8630       0.031000
       1432.50       137.3980       433.2690        68.2310         4.3580        65.3370         1.0510      0.0837901         1.2678         0.4480        65.5660      0.0070000         1.9510       0.030000
       1433.00       137.6450       423.5420        68.8890         4.4700        65.8260         1.0211      0.0837831         1.2218         0.4760        86.0260      0.0060000         2.1270       0.025000
       1433.50       138.7490       405.3190        70.1650         4.6810        66.8590         0.9828      0.0837761         1.1655         0.5330       180.7670      0.0030000         2.4970       0.014000
       1434.00       139.6770       389.2710        71.5210         4.8600        68.0390         0.9519      0.0837690         1.1158         0.6120       671.6710      0.0010000         2.9760       0.004000
       1434.50       140.6030       387.4810        72.0640         4.9230        68.3890         0.9355      0.0837620         1.0776         0.6790      4197.8760      0.0000000         3.3410       0.001000
       1435.00       141.2300       380.3500        71.5460         4.8990        67.7660         0.9295      0.0837550         1.0478         0.7360      7227.2881      0.0000000         3.6040       0.000000
       1435.50       142.3890       388.1890        70.1280         4.7870        66.6100         0.9245      0.0837480         1.0143         0.7700      1026.3260      0.0010000         3.6870       0.004000
       1436.00       141.3390       392.6550        68.2760         4.6150        65.3720         0.9050      0.0837409         0.9677         0.7730       489.3880      0.0020000         3.5680       0.007000
       1436.50       140.5900       402.0750        68.2200         4.4750        65.6400         0.8741      0.0837339         0.9215         0.7410       330.3660      0.0020000         3.3140       0.010000
       1437.00       139.3750       413.1230        69.9350         4.4240        67.1060         0.8566      0.0837269         0.8935         0.6810       256.3410      0.0030000         3.0140       0.012000
       1437.50       138.6470       424.5420        70.2830         4.4620        67.3810         0.8722      0.0837199         0.8937         0.6350       237.8870      0.0030000         2.8340       0.012000
       1438.00       138.5150       433.4450        69.0690         4.5580        66.3790         0.9146      0.0837128         0.9175         0.6240       290.2100      0.0020000         2.8450       0.010000
       1438.50       138.8810       435.7740        69.2570         4.6470        66.4100         0.9632      0.0837058         0.9534         0.6300       505.8000      0.0010000         2.9290       0.006000
       1439.00       138.9620       437.2180        70.2940         4.7190        67.1390         1.0059      0.0836988         0.9868         0.6330      1259.1150      0.0010000         2.9890       0.002000
       1439.50       139.3270       436.6480        71.0370         4.7830        67.9930         1.0407      0.0836918         1.0153         0.6450      7771.7109      0.0000000         3.0830       0.000000
       1440.00       138.9540       432.7780        72.4540         4.8560        69.6520         1.0575      0.0836848         1.0306         0.6470         0.0000      0.0000000         3.1440       0.000000
       1440.50       138.8690       419.8890        74.2470         4.9130        71.2640         1.0346      0.0836778         1.0112         0.6350         0.0000      0.0000000         3.1200       0.000000
       1441.00       137.5940       405.8450        75.8380         4.9360        72.2190         0.9679      0.0836708         0.9494         0.6320         0.0000      0.0000000         3.1190       0.000000
       1441.50       136.1010       389.5460        76.7440         4.9620        72.8450         0.8834      0.0836637         0.8681         0.6480         0.0000      0.0000000         3.2160       0.000000
       1442.00       134.0230       377.3200        75.3160         4.9420        72.1030         0.8190      0.0836567         0.8058         0.6670      4105.0420      0.0000000         3.2940       0.001000
       1442.50       133.5980       367.9680        72.5040         4.8370        70.4280         0.8067      0.0836497         0.7919         0.6730      1440.5670      0.0000000         3.2540       0.002000
       1443.00       136.2150       366.4960        70.9790         4.7590        69.6880         0.8493      0.0836427         0.8289         0.6640      1206.4180      0.0010000         3.1580       0.003000
       1443.50       140.4040       372.0400        70.3250         4.7310        69.3560         0.9190      0.0836357         0.8980         0.6430      1211.2280      0.0010000         3.0400       0.003000
       1444.00       145.8930       397.4100        70.0480         4.6930        69.0830         0.9747      0.0836287         0.9628         0.6130       944.5840      0.0010000         2.8750       0.003000
       1444.50       149.1990       399.2560        70.0590         4.6600        68.7740         0.9972      0.0836217         0.9979         0.5800       449.3460      0.0010000         2.7020       0.006000
       1445.00       150.4960       413.2410        70.1120         4.6320        68.2610         0.9936      0.0836147         1.0019         0.5550       182.2920      0.0030000         2.5730       0.014000
       1445.50       149.1080       416.8570        71.4450         4.5950        68.7800         0.9840      0.0836077         0.9921         0.5240        73.0350      0.0070000         2.4080       0.033000
       1446.00       147.3790       425.9750        73.7130         4.5240        70.3620         0.9758      0.0836007         0.9802         0.4870        40.3130      0.0120000         2.2040       0.055000
       1446.50       144.4450       419.0960        73.6360         4.4500        70.3100         0.9696      0.0835937         0.9709         0.4680        30.9390      0.0150000         2.0830       0.067000
       1447.00       141.4470       401.1830        71.7460         4.4010        68.8900         0.9636      0.0835867         0.9646         0.4550        25.5470      0.0180000         2.0020       0.078000
       1447.50       138.7790       374.1820        70.6960         4.3980        68.0540         0.9603      0.0835797         0.9595         0.4360        24.2460      0.0180000         1.9190       0.079000
