~Version Information Block
VERS .                 2.00:  CWLS LOG ASCII STANDARD - VERSION 2.00
WRAP .                   NO:  One line per depth step
~Well Information Block
#MNEM.UNIT        Data Type   Information
#---------- ----------------  -----------
STRT .FT             200.00:  START DEPTH
STOP .FT            2799.00:  STOP DEPTH
STEP .FT               0.50:  STEP
NULL .              -999.25:  NULL VALUE
COMP .                     :  COMPANY
WELL .              19/08-1:  WELL
FLD  .                     :  FIELD
LOC  .                     :  LOCATION
CTRY .                     :  COUNTRY
STAT .                     :  STATE
CNTY .                     :  COUNTY
SRVC .                     :  SERVICE COMPANY
DATE .                     :  DATE
API  .                     :  API NUMBER
UWI  .                     :  UNIQUE WELL ID
~Curve Information Block
#MNEM.UNIT         API CODE   Curve Description
#---------- ----------------  -----------------
DEPTH.FT       99 995 99  1:  Depth
DTC  .US/F     99 995 99  1:  Compressional Wave Slowness
DTS  .US/F     60 530 16  1:  Shear Wave Slowness
GR   .GAPI     30 310  1  1:  Gamma Ray counts
K    .%        31 719 99  1:  Potassium
KTH  .GAPI     31 995 99  1:  Potassium Plus Thorium
RD   .OHMM      1 220 10  1:  Logarithmic Resistivity from ED  ID Depthshifted Depthshifted
RM   .OHMM                 :  Mud resistivity
RS   .OHMM      1 220  9  1:  Shallow resistivity Depthshifted
RTHK .----     31 995 99  1:  Ratio of Thorium to Potassium (TH/K)
RTHU .PPM      31 995 99  1:  Ratio of Thorium to Uranium (TH/U)
RUK  .----     31 995 99  1:  Ratio of Uranium to Potassium (U/K)
TH   .PPM      31 790 99  1:  Thorium
UR   .PPM      31 792 99  1:  Uranium
~Parameter Information Block
#MNEM.UNIT            Value   Description
#---------- ----------------  -----------
PROJECT.     geolog_uk@uxbvllapp02:  
SET  .                 WIRE:  
~Other Information Block
# 
~A       DEPTH            DTC            DTS             GR              K            KTH             RD             RM             RS           RTHK           RTHU            RUK             TH             UR 
# ...
       2228.00       121.3720       249.3330        70.9500         4.9300        66.5960         0.9558      0.0739209         1.0593         0.4180         0.0000      0.0000000         2.0610       0.000000
       2228.50       120.8810       267.7810        71.1010         4.8280        66.6550         0.9513      0.0739155         1.0453         0.4530         0.0000      0.0000000         2.1870       0.000000
       2229.00       120.7670       278.4680        71.2650         4.7010        66.7330         0.9672      0.0739100         1.0512         0.5040         0.0000      0.0000000         2.3680       0.000000
       2229.50       120.8430       284.2200        71.9950         4.5710        67.5200         0.9916      0.0739045         1.0710         0.5710         0.0000      0.0000000         2.6110       0.000000
       2230.00       121.2850       284.4440        72.1030         4.5240        67.6300         1.0021      0.0738990         1.0838         0.6020         0.0000      0.0000000         2.7230       0.000000
       2230.50       121.5510       281.3430        71.0270         4.5620        66.3150         0.9922      0.0738936         1.0769         0.5830         0.0000      0.0000000         2.6610       0.000000
       2231.00       121.4020       278.8690        70.6240         4.6350        65.6720         0.9729      0.0738881         1.0652         0.5380         0.0000      0.0000000         2.4950       0.000000
       2231.50       122.0500       276.6200        71.0340         4.6730        66.0120         0.9647      0.0738826         1.0649         0.4810      1024.9220      0.0000000         2.2470       0.002000
       2232.00       123.2540       276.0880        71.1200         4.6220        66.0720         0.9766      0.0738772         1.0776         0.4360       108.8840      0.0040000         2.0150       0.019000
       2232.50       122.8850       277.1040        70.0340         4.4660        64.9500         0.9997      0.0738717         1.0952         0.4220        33.2550      0.0130000         1.8830       0.057000
       2233.00       121.0060       275.6370        68.2560         4.2310        63.2870         1.0264      0.0738662         1.1187         0.4400        18.9820      0.0230000         1.8600       0.098000
       2233.50       119.1960       272.1740        67.4140         4.0380        62.5300         1.0651      0.0738608         1.1571         0.4740        15.5340      0.0300000         1.9130       0.123000
       2234.00       118.8630       268.0830        67.8620         3.9580        62.8900         1.1132      0.0738553         1.2088         0.5080        15.5740      0.0330000         2.0110       0.129000
       2234.50       119.9740       271.7680        68.2760         3.9800        63.3720         1.1424      0.0738498         1.2429         0.5570        18.2410      0.0310000         2.2170       0.122000
       2235.00       121.6580       280.2350        68.7720         4.1310        64.4070         1.1233      0.0738444         1.2279         0.6210        27.9850      0.0220000         2.5660       0.092000
       2235.50       122.5950       290.3120        69.8810         4.4350        66.3860         1.0623      0.0738389         1.1673         0.7090        66.8510      0.0110000         3.1450       0.047000
       2236.00       122.5680       293.4790        71.1050         4.7480        68.4890         0.9946      0.0738335         1.0978         0.7800       226.6110      0.0030000         3.7010       0.016000
       2236.50       121.8390       288.3630        71.8400         4.9690        70.0250         0.9546      0.0738280         1.0531         0.8180      1171.9351      0.0010000         4.0660       0.003000
       2237.00       120.6880       281.6650        71.7490         5.1290        70.3960         0.9519      0.0738226         1.0427         0.8350     10789.7559      0.0000000         4.2810       0.000000
       2237.50       119.6060       275.3840        70.3170         5.1960        69.0840         0.9637      0.0738171         1.0510         0.8110         0.0000      0.0000000         4.2110       0.000000
       2238.00       118.5490       272.1970        68.3420         5.1980        66.9610         0.9677      0.0738116         1.0538         0.7720         0.0000      0.0000000         4.0140       0.000000
       2238.50       118.3970       274.5230        67.9920         5.1700        66.3360         0.9617      0.0738062         1.0441         0.7510         0.0000      0.0000000         3.8820       0.000000
       2239.00       118.9900       278.3700        68.9290         5.1020        67.1730         0.9556      0.0738007         1.0313         0.7340         0.0000      0.0000000         3.7440       0.000000
       2239.50       120.8000       282.2910        69.4330         5.0010        67.9230         0.9595      0.0737953         1.0273         0.6990      3308.1951      0.0000000         3.4950       0.001000
       2240.00       120.9380       290.1660        68.6780         4.8900        67.4780         0.9844      0.0737898         1.0442         0.6520       516.7800      0.0010000         3.1880       0.006000
       2240.50       120.8280       299.6710        67.6970         4.7530        66.5580         1.0375      0.0737844         1.0875         0.5920       193.8370      0.0030000         2.8130       0.015000
       2241.00       119.8660       302.2440        67.3650         4.6140        66.0690         1.1062      0.0737789         1.1534         0.5350        98.7040      0.0050000         2.4670       0.025000
       2241.50       119.9390       301.0730        68.1060         4.4970        66.5030         1.1590      0.0737735         1.2142         0.4940        60.9890      0.0080000         2.2200       0.036000
       2242.00       120.1720       286.8630        69.2010         4.4060        67.3570         1.1622      0.0737680         1.2308         0.4780        45.0200      0.0110000         2.1070       0.047000
       2242.50       120.4190       278.9930        68.8190         4.3790        67.0850         1.1187      0.0737626         1.1941         0.4950        43.9620      0.0110000         2.1680       0.049000
       2243.00       119.2280       264.0710        66.9580         4.4250        65.6030         1.0788      0.0737571         1.1449         0.5080        51.9340      0.0100000         2.2460       0.043000
       2243.50       117.4560       258.8950        66.1940         4.5150        65.1390         1.0840      0.0737517         1.1346         0.4990        68.0750      0.0070000         2.2550       0.033000
       2244.00       116.6290       253.2440        67.8030         4.6320        66.8350         1.1310      0.0737462         1.1764         0.4720       109.3290      0.0040000         2.1840       0.020000
       2244.50       116.9120       253.8590        69.1080         4.6990        67.9820         1.1856      0.0737408         1.2397         0.4450       136.1420      0.0030000         2.0920       0.015000
       2245.00       118.4980       256.5490        69.2920         4.6790        67.9230         1.2145      0.0737353         1.2785         0.4370        80.1210      0.0050000         2.0460       0.026000
       2245.50       119.4670       261.3850        69.5460         4.6100        68.0910         1.2026      0.0737299         1.2694         0.4390        50.6940      0.0090000         2.0230       0.040000
       2246.00       119.6160       259.7460        69.9590         4.5380        68.6050         1.1667      0.0737244         1.2328         0.4560        44.4100      0.0100000         2.0710       0.047000
       2246.50       118.7020       255.8220        69.3190         4.5340        68.0680         1.1359      0.0737190         1.2019         0.5060        52.0880      0.0100000         2.2950       0.044000
       2247.00       116.5750       252.9950        68.3870         4.6030        66.9940         1.1258      0.0737136         1.1873         0.5590        69.9770      0.0080000         2.5710       0.037000
