~Version Information Block
VERS .                 2.00:  CWLS LOG ASCII STANDARD - VERSION 2.00
WRAP .                   NO:  One line per depth step
~Well Information Block
#MNEM.UNIT        Data Type   Information
#---------- ----------------  -----------
STRT .FT             200.00:  START DEPTH
STOP .FT            2799.00:  STOP DEPTH
STEP .FT               0.50:  STEP
NULL .              -999.25:  NULL VALUE
COMP .                     :  COMPANY
WELL .              19/08-1:  WELL
FLD  .                     :  FIELD
LOC  .                     :  LOCATION
CTRY .                     :  COUNTRY
STAT .                     :  STATE
CNTY .                     :  COUNTY
SRVC .                     :  SERVICE COMPANY
DATE .                     :  DATE
API  .                     :  API NUMBER
UWI  .                     :  UNIQUE WELL ID
~Curve Information Block
#MNEM.UNIT         API CODE   Curve Description
#---------- ----------------  -----------------
DEPTH.FT       99 995 99  1:  Depth
DTC  .US/F     99 995 99  1:  Compressional Wave Slowness
DTS  .US/F     60 530 16  1:  Shear Wave Slowness
GR   .GAPI     30 310  1  1:  Gamma Ray counts
K    .%        31 719 99  1:  Potassium
KTH  .GAPI     31 995 99  1:  Potassium Plus Thorium
RD   .OHMM      1 220 10  1:  Logarithmic Resistivity from ED  ID Depthshifted Depthshifted
RM   .OHMM                 :  Mud resistivity
RS   .OHMM      1 220  9  1:  Shallow resistivity Depthshifted
RTHK .----     31 995 99  1:  Ratio of Thorium to Potassium (TH/K)
RTHU .PPM      31 995 99  1:  Ratio of Thorium to Uranium (TH/U)
RUK  .----     31 995 99  1:  Ratio of Uranium to Potassium (U/K)
TH   .PPM      31 790 99  1:  Thorium
UR   .PPM      31 792 99  1:  Uranium
~Parameter Information Block
#MNEM.UNIT            Value   Description
#---------- ----------------  -----------
PROJECT.     geolog_uk@uxbvllapp02:  
SET  .                 WIRE:  
~Other Information Block
# 
~A       DEPTH            DTC            DTS             GR              K            KTH             RD             RM             RS           RTHK           RTHU            RUK             TH             UR 
# ...
       2111.00       137.1180       329.3820        68.3960         4.7170        67.1230         0.7765      0.0752241         0.8785         0.3720      1855.4280      0.0000000         1.7550       0.001000
       2111.50       137.4990       354.2300        67.7630         4.7370        66.8790         0.7615      0.0752184         0.8644         0.3720      1526.9900      0.0000000         1.7600       0.001000
       2112.00       136.3060       404.7160        67.4790         4.7510        66.6040         0.7510      0.0752127         0.8495         0.3890      1364.6470      0.0000000         1.8470       0.001000
       2112.50       134.9390       432.3550        68.3300         4.7600        67.2260         0.7518      0.0752071         0.8408         0.4270      1745.0200      0.0000000         2.0310       0.001000
       2113.00       133.8870       449.7390        69.0770         4.7430        67.9440         0.7628      0.0752014         0.8436         0.4600       769.9040      0.0010000         2.1810       0.003000
       2113.50       136.0940       463.3690        68.2420         4.7150        67.1450         0.7694      0.0751957         0.8458         0.4540       405.2070      0.0010000         2.1410       0.005000
       2114.00       137.6400       482.2240        67.3600         4.7080        66.0510         0.7583      0.0751901         0.8361         0.4220       329.7500      0.0010000         1.9880       0.006000
       2114.50       139.8390       491.8570        68.2990         4.7240        66.7210         0.7362      0.0751844         0.8160         0.3930       302.7620      0.0010000         1.8540       0.006000
       2115.00       142.4000       489.7190        69.9260         4.7550        68.3840         0.7196      0.0751788         0.7987         0.3760       325.7020      0.0010000         1.7860       0.005000
       2115.50       144.8620       482.7640        70.0050         4.8050        68.7000         0.7162      0.0751731         0.7925         0.3850       402.1280      0.0010000         1.8510       0.005000
       2116.00       145.0410       481.9390        68.9870         4.8510        67.6980         0.7196      0.0751674         0.7947         0.4080       796.4110      0.0010000         1.9780       0.002000
       2116.50       144.4170       486.0330        68.7760         4.8490        67.2030         0.7218      0.0751618         0.7941         0.4230       438.8220      0.0010000         2.0490       0.005000
       2117.00       140.7660       484.0630        69.5410         4.8200        67.7340         0.7211      0.0751561         0.7877         0.4250       190.8040      0.0020000         2.0480       0.011000
       2117.50       137.2610       476.5860        71.0920         4.8060        69.2680         0.7282      0.0751505         0.7888         0.4010       131.1170      0.0030000         1.9290       0.015000
       2118.00       136.4960       467.2640        73.0100         4.7980        71.1510         0.7516      0.0751448         0.8080         0.3580        85.2570      0.0040000         1.7170       0.020000
       2118.50       140.4770       471.0620        73.7610         4.8070        71.8700         0.7892      0.0751392         0.8470         0.3250        73.1540      0.0040000         1.5640       0.021000
       2119.00       142.8620       470.4630        72.7170         4.8450        70.9050         0.8309      0.0751335         0.8916         0.3080        90.9190      0.0030000         1.4930       0.016000
       2119.50       144.6570       472.2840        71.0280         4.8620        69.3810         0.8612      0.0751278         0.9231         0.3070       122.1020      0.0030000         1.4920       0.012000
       2120.00       145.4840       482.9340        70.2410         4.8290        68.6190         0.8757      0.0751222         0.9359         0.3290       102.0250      0.0030000         1.5870       0.016000
       2120.50       145.7440       489.7030        70.5880         4.7580        68.7980         0.8797      0.0751165         0.9370         0.3610        63.2450      0.0060000         1.7170       0.027000
       2121.00       143.4320       495.0370        71.7290         4.6880        69.9210         0.8791      0.0751109         0.9361         0.4060        53.0920      0.0080000         1.9030       0.036000
       2121.50       138.1080       490.1170        72.2410         4.6430        70.6740         0.8763      0.0751052         0.9306         0.4740        57.6770      0.0080000         2.2010       0.038000
       2122.00       132.8690       480.4570        72.0950         4.6420        70.6510         0.8670      0.0750996         0.9156         0.5450        69.9890      0.0080000         2.5310       0.036000
       2122.50       129.8450       464.7200        72.1960         4.6770        70.5590         0.8597      0.0750939         0.9005         0.5970        97.1850      0.0060000         2.7940       0.029000
       2123.00       128.7010       444.5450        72.5830         4.7290        70.6820         0.8816      0.0750883         0.9171         0.6330       182.6360      0.0030000         2.9910       0.016000
       2123.50       128.6630       433.3690        72.2000         4.7720        70.1290         0.9364      0.0750827         0.9741         0.6490       682.6820      0.0010000         3.0980       0.005000
       2124.00       129.5080       418.1790        71.0940         4.7860        69.0520         0.9880      0.0750770         1.0369         0.6440         0.0000      0.0000000         3.0850       0.000000
       2124.50       130.4600       406.0420        70.3010         4.7880        68.4330         1.0029      0.0750714         1.0592         0.6330         0.0000      0.0000000         3.0320       0.000000
       2125.00       131.7170       396.2720        69.6410         4.7930        67.8590         0.9742      0.0750657         1.0294         0.6260         0.0000      0.0000000         2.9990       0.000000
       2125.50       131.4530       397.5550        69.0890         4.7950        67.1530         0.9367      0.0750601         0.9845         0.6100         0.0000      0.0000000         2.9250       0.000000
       2126.00       130.8970       391.9790        69.0880         4.7970        66.9580         0.9339      0.0750544         0.9719         0.5870         0.0000      0.0000000         2.8160       0.000000
       2126.50       129.6250       374.3010        69.7050         4.8010        67.5750         0.9791      0.0750488         1.0107         0.5740         0.0000      0.0000000         2.7550       0.000000
       2127.00       130.9130       345.3040        70.1080         4.7860        68.2440         1.0472      0.0750432         1.0845         0.5760         0.0000      0.0000000         2.7560       0.000000
       2127.50       129.2700       313.3340        70.1900         4.7510        68.6850         1.1055      0.0750375         1.1579         0.5990         0.0000      0.0000000         2.8470       0.000000
       2128.00       126.9340       289.0460        69.7440         4.7290        68.4340         1.1426      0.0750319         1.2029         0.6610         0.0000      0.0000000         3.1250       0.000000
       2128.50       123.3910       268.7480        68.9150         4.7340        67.5300         1.1622      0.0750262         1.2214         0.7490         0.0000      0.0000000         3.5440       0.000000
       2129.00       119.5740       257.7510        67.7560         4.7630        66.1680         1.1712      0.0750206         1.2293         0.8160         0.0000      0.0000000         3.8880       0.000000
       2129.50       114.6570       251.7240        65.9560         4.8270        64.3020         1.1783      0.0750150         1.2399         0.8310         0.0000      0.0000000         4.0090       0.000000
       2130.00       111.0650       253.5850        64.2390         4.8630        62.6260         1.1989      0.0750093         1.2636         0.8000         0.0000      0.0000000         3.8900       0.000000
