~Version Information Block
VERS .                 2.00:  CWLS LOG ASCII STANDARD - VERSION 2.00
WRAP .                   NO:  One line per depth step
~Well Information Block
#MNEM.UNIT        Data Type   Information
#---------- ----------------  -----------
STRT .FT             200.00:  START DEPTH
STOP .FT            2799.00:  STOP DEPTH
STEP .FT               0.50:  STEP
NULL .              -999.25:  NULL VALUE
COMP .                     :  COMPANY
WELL .              19/08-1:  WELL
FLD  .                     :  FIELD
LOC  .                     :  LOCATION
CTRY .                     :  COUNTRY
STAT .                     :  STATE
CNTY .                     :  COUNTY
SRVC .                     :  SERVICE COMPANY
DATE .                     :  DATE
API  .                     :  API NUMBER
UWI  .                     :  UNIQUE WELL ID
~Curve Information Block
#MNEM.UNIT         API CODE   Curve Description
#---------- ----------------  -----------------
DEPTH.FT       99 995 99  1:  Depth
DTC  .US/F     99 995 99  1:  Compressional Wave Slowness
DTS  .US/F     60 530 16  1:  Shear Wave Slowness
GR   .GAPI     30 310  1  1:  Gamma Ray counts
K    .%        31 719 99  1:  Potassium
KTH  .GAPI     31 995 99  1:  Potassium Plus Thorium
RD   .OHMM      1 220 10  1:  Logarithmic Resistivity from ED  ID Depthshifted Depthshifted
RM   .OHMM                 :  Mud resistivity
RS   .OHMM      1 220  9  1:  Shallow resistivity Depthshifted
RTHK .----     31 995 99  1:  Ratio of Thorium to Potassium (TH/K)
RTHU .PPM      31 995 99  1:  Ratio of Thorium to Uranium (TH/U)
RUK  .----     31 995 99  1:  Ratio of Uranium to Potassium (U/K)
TH   .PPM      31 790 99  1:  Thorium
UR   .PPM      31 792 99  1:  Uranium
~Parameter Information Block
#MNEM.UNIT            Value   Description
#---------- ----------------  -----------
PROJECT.     geolog_uk@uxbvllapp02:  
SET  .                 WIRE:  
~Other Information Block
# 
~A       DEPTH            DTC            DTS             GR              K            KTH             RD             RM             RS           RTHK           RTHU            RUK             TH             UR 
# ...
       2696.00       129.0950       377.6480        78.3150         4.3610        77.8510         1.4530      0.0691306         1.7012         1.6040        65.7350      0.0240000         6.9930       0.106000
       2696.50       124.8890       340.8210        73.2940         4.2700        73.2100         1.3280      0.0691258         1.5369         1.6470       212.8310      0.0080000         7.0310       0.033000
       2697.00       120.6680       311.3700        70.2900         4.2420        70.3210         1.2916      0.0691210         1.4705         1.6200       376.2540      0.0040000         6.8710       0.018000
       2697.50       116.9470       286.8700        69.4340         4.2410        69.5640         1.3928      0.0691162         1.5661         1.6180       536.2440      0.0030000         6.8600       0.013000
       2698.00       113.7680       267.0000        69.5190         4.2380        69.7400         1.6243      0.0691115         1.8225         1.6470       630.8560      0.0030000         6.9800       0.011000
       2698.50       111.0970       255.5680        69.6480         4.2180        69.8280         1.9540      0.0691067         2.2074         1.6780       368.2230      0.0050000         7.0760       0.019000
       2699.00       108.2390       251.0070        69.8100         4.1800        69.7720         2.3174      0.0691019         2.6477         1.7390       202.0700      0.0090000         7.2700       0.036000
       2699.50       105.3400       252.5500        70.1520         4.1360        69.9530         2.5796      0.0690971         2.9835         1.8390       152.3700      0.0120000         7.6040       0.050000
       2700.00       103.0790       255.7650        71.7110         4.0740        71.5090         2.5814      0.0690923         3.0159         1.9660       124.1400      0.0160000         8.0100       0.065000
       2700.50       102.6460       258.6170        75.6170         4.0000        75.3930         2.2938      0.0690876         2.6865         2.2000        94.5260      0.0230000         8.7980       0.093000
       2701.00       103.1530       257.5560        80.4500         3.9670        80.0800         1.8776      0.0690828         2.1780         2.3750        71.4600      0.0330000         9.4220       0.132000
       2701.50       104.5010       255.6990        83.8570         3.9790        83.3760         1.5508      0.0690780         1.7614         2.3590        59.6740      0.0400000         9.3860       0.157000
       2702.00       105.8610       254.3680        84.6810         3.9850        84.1640         1.4279      0.0690732         1.5794         2.3220        52.7650      0.0440000         9.2520       0.175000
       2702.50       109.3810       252.9060        80.7830         4.0230        80.3220         1.5191      0.0690684         1.6452         2.1260        49.1380      0.0430000         8.5520       0.174000
       2703.00       112.5640       249.4180        72.3010         4.0980        72.1450         1.8008      0.0690637         1.9338         1.5670        57.4940      0.0270000         6.4230       0.112000
       2703.50       115.0150       245.4800        64.6040         4.1290        64.6280         2.1911      0.0690589         2.3630         1.1330        80.8410      0.0140000         4.6770       0.058000
       2704.00       115.2840       248.8200        61.6100         4.1260        61.5770         2.5613      0.0690541         2.7869         1.0660        83.4230      0.0130000         4.3990       0.053000
       2704.50       114.6730       256.5170        62.6910         4.1300        62.6380         2.8497      0.0690493         3.1241         1.0540        79.0370      0.0130000         4.3530       0.055000
       2705.00       113.8630       268.2940        66.6590         4.1460        66.5500         3.0963      0.0690446         3.4069         1.0890        59.5190      0.0180000         4.5170       0.076000
       2705.50       112.6980       271.8220        71.3140         4.1720        71.0870         3.3123      0.0690398         3.6533         1.1830        47.1400      0.0250000         4.9340       0.105000
       2706.00       110.4060       273.5630        73.6260         4.2020        73.3790         3.4413      0.0690350         3.8034         1.2280        45.7730      0.0270000         5.1590       0.113000
       2706.50       107.3210       260.4790        73.5030         4.2430        73.2980         3.4665      0.0690302         3.8224         1.2350        46.6510      0.0260000         5.2390       0.112000
       2707.00       105.1850       248.3210        73.1210         4.2830        72.8660         3.4328      0.0690255         3.7670         1.2360        45.1370      0.0270000         5.2930       0.117000
       2707.50       103.9500       237.7810        74.4290         4.3480        74.0510         3.3902      0.0690207         3.6996         1.2060        41.0790      0.0290000         5.2450       0.128000
       2708.00       103.2290       233.3610        77.0810         4.4520        76.6510         3.3580      0.0690159         3.6488         1.1470        37.3770      0.0310000         5.1050       0.137000
       2708.50       103.0900       237.8160        78.3940      -999.2500      -999.2500         3.3397      0.0690112         3.6124      -999.2500      -999.2500   -999.2500000      -999.2500    -999.250000
       2709.00       103.0850       242.4190        77.2830      -999.2500      -999.2500         3.3281      0.0690064         3.5819      -999.2500      -999.2500   -999.2500000      -999.2500    -999.250000
       2709.50       102.6030       247.2360        76.1110      -999.2500      -999.2500         3.3126      0.0690016         3.5510      -999.2500      -999.2500   -999.2500000      -999.2500    -999.250000
       2710.00       102.3220       248.6880        75.6210      -999.2500      -999.2500         3.2957      0.0689968         3.5182      -999.2500      -999.2500   -999.2500000      -999.2500    -999.250000
       2710.50       101.9610       251.4660      -999.2500      -999.2500      -999.2500         3.2787      0.0689921         3.4834      -999.2500      -999.2500   -999.2500000      -999.2500    -999.250000
       2711.00       102.6870       257.0060      -999.2500      -999.2500      -999.2500         3.2526      0.0689873         3.4421      -999.2500      -999.2500   -999.2500000      -999.2500    -999.250000
       2711.50       103.9080       263.4340      -999.2500      -999.2500      -999.2500         3.2031      0.0689825         3.3902      -999.2500      -999.2500   -999.2500000      -999.2500    -999.250000
       2712.00       104.0950       268.0160      -999.2500      -999.2500      -999.2500         3.1285      0.0689778         3.3290      -999.2500      -999.2500   -999.2500000      -999.2500    -999.250000
       2712.50       103.8410       272.5200      -999.2500      -999.2500      -999.2500         3.0235      0.0689730         3.2381      -999.2500      -999.2500   -999.2500000      -999.2500    -999.250000
       2713.00       103.0990       273.6660      -999.2500      -999.2500      -999.2500         2.8722      0.0689683         3.0864      -999.2500      -999.2500   -999.2500000      -999.2500    -999.250000
       2713.50       103.5390       273.7360      -999.2500      -999.2500      -999.2500         2.6774      0.0689635         2.8760      -999.2500      -999.2500   -999.2500000      -999.2500    -999.250000
       2714.00       104.4610       271.7880      -999.2500      -999.2500      -999.2500         2.4739      0.0689587         2.6519      -999.2500      -999.2500   -999.2500000      -999.2500    -999.250000
       2714.50       105.6670       268.6970      -999.2500      -999.2500      -999.2500         2.3159      0.0689540         2.4747      -999.2500      -999.2500   -999.2500000      -999.2500    -999.250000
       2715.00       107.5930       266.3960      -999.2500      -999.2500      -999.2500         2.2324      0.0689492         2.3750      -999.2500      -999.2500   -999.2500000      -999.2500    -999.250000
