~Version Information Block
VERS .                 2.00:  CWLS LOG ASCII STANDARD - VERSION 2.00
WRAP .                   NO:  One line per depth step
~Well Information Block
#MNEM.UNIT        Data Type   Information
#---------- ----------------  -----------
STRT .FT             200.00:  START DEPTH
STOP .FT            2799.00:  STOP DEPTH
STEP .FT               0.50:  STEP
NULL .              -999.25:  NULL VALUE
COMP .                     :  COMPANY
WELL .              19/08-1:  WELL
FLD  .                     :  FIELD
LOC  .                     :  LOCATION
CTRY .                     :  COUNTRY
STAT .                     :  STATE
CNTY .                     :  COUNTY
SRVC .                     :  SERVICE COMPANY
DATE .                     :  DATE
API  .                     :  API NUMBER
UWI  .                     :  UNIQUE WELL ID
~Curve Information Block
#MNEM.UNIT         API CODE   Curve Description
#---------- ----------------  -----------------
DEPTH.FT       99 995 99  1:  Depth
DTC  .US/F     99 995 99  1:  Compressional Wave Slowness
DTS  .US/F     60 530 16  1:  Shear Wave Slowness
GR   .GAPI     30 310  1  1:  Gamma Ray counts
K    .%        31 719 99  1:  Potassium
KTH  .GAPI     31 995 99  1:  Potassium Plus Thorium
RD   .OHMM      1 220 10  1:  Logarithmic Resistivity from ED  ID Depthshifted Depthshifted
RM   .OHMM                 :  Mud resistivity
RS   .OHMM      1 220  9  1:  Shallow resistivity Depthshifted
RTHK .----     31 995 99  1:  Ratio of Thorium to Potassium (TH/K)
RTHU .PPM      31 995 99  1:  Ratio of Thorium to Uranium (TH/U)
RUK  .----     31 995 99  1:  Ratio of Uranium to Potassium (U/K)
TH   .PPM      31 790 99  1:  Thorium
UR   .PPM      31 792 99  1:  Uranium
~Parameter Information Block
#MNEM.UNIT            Value   Description
#---------- ----------------  -----------
PROJECT.     geolog_uk@uxbvllapp02:  
SET  .                 WIRE:  
~Other Information Block
# 
~A       DEPTH            DTC            DTS             GR              K            KTH             RD             RM             RS           RTHK           RTHU            RUK             TH             UR 
# ...
        960.50      -999.2500      -999.2500        46.3380      -999.2500      -999.2500      -999.2500      0.0909987      -999.2500      -999.2500      -999.2500   -999.2500000      -999.2500    -999.250000
        961.00      -999.2500      -999.2500        46.4010      -999.2500      -999.2500      -999.2500      0.0909904      -999.2500      -999.2500      -999.2500   -999.2500000      -999.2500    -999.250000
        961.50      -999.2500      -999.2500        47.7880      -999.2500      -999.2500      -999.2500      0.0909822      -999.2500      -999.2500      -999.2500   -999.2500000      -999.2500    -999.250000
        962.00      -999.2500      -999.2500        49.7890      -999.2500      -999.2500      -999.2500      0.0909739      -999.2500      -999.2500      -999.2500   -999.2500000      -999.2500    -999.250000
        962.50      -999.2500      -999.2500        51.3080      -999.2500      -999.2500      -999.2500      0.0909656      -999.2500      -999.2500      -999.2500   -999.2500000      -999.2500    -999.250000
        963.00      -999.2500      -999.2500        52.1400      -999.2500      -999.2500      -999.2500      0.0909573      -999.2500      -999.2500      -999.2500   -999.2500000      -999.2500    -999.250000
        963.50      -999.2500      -999.2500        52.2820         3.9940        49.8030      -999.2500      0.0909490      -999.2500         0.4890      7146.4629      0.0000000         1.9550       0.000000
        964.00      -999.2500      -999.2500        51.0200         4.0130        48.4480      -999.2500      0.0909407      -999.2500         0.5200         0.0000      0.0000000         2.0850       0.000000
        964.50      -999.2500      -999.2500        49.1670         3.9600        46.7810      -999.2500      0.0909324      -999.2500         0.5350         0.0000      0.0000000         2.1190       0.000000
        965.00      -999.2500      -999.2500        49.0720         3.8760        46.8290      -999.2500      0.0909242      -999.2500         0.5200         0.0000      0.0000000         2.0170       0.000000
        965.50      -999.2500      -999.2500        50.6130         3.8080        48.2660      -999.2500      0.0909159      -999.2500         0.4760         0.0000      0.0000000         1.8120       0.000000
        966.00      -999.2500      -999.2500        50.5860         3.7640        48.1470      -999.2500      0.0909076      -999.2500         0.4200         0.0000      0.0000000         1.5810       0.000000
        966.50      -999.2500      -999.2500        48.6530         3.7550        46.3990      -999.2500      0.0908993      -999.2500         0.3700         0.0000      0.0000000         1.3880       0.000000
        967.00      -999.2500      -999.2500        47.4890         3.7790        45.5560      -999.2500      0.0908910      -999.2500         0.3450         0.0000      0.0000000         1.3030       0.000000
        967.50      -999.2500      -999.2500        47.9000         3.8390        46.1790      -999.2500      0.0908828      -999.2500         0.3370         0.0000      0.0000000         1.2920       0.000000
        968.00      -999.2500      -999.2500        48.5760         3.9330        46.8600      -999.2500      0.0908745      -999.2500         0.3330         0.0000      0.0000000         1.3100       0.000000
        968.50      -999.2500      -999.2500        48.7050         4.0280        46.9990      -999.2500      0.0908662      -999.2500         0.3340         0.0000      0.0000000         1.3450       0.000000
        969.00      -999.2500      -999.2500        48.6120         4.0970        46.8970      -999.2500      0.0908580      -999.2500         0.3290         0.0000      0.0000000         1.3490       0.000000
        969.50      -999.2500      -999.2500        48.6250         4.1450        46.8000      -999.2500      0.0908497      -999.2500         0.3190         0.0000      0.0000000         1.3200       0.000000
        970.00      -999.2500      -999.2500        49.1650         4.1750        47.0860      -999.2500      0.0908414      -999.2500         0.3000         0.0000      0.0000000         1.2510       0.000000
        970.50      -999.2500      -999.2500        49.7540         4.1770        47.5010      -999.2500      0.0908332      -999.2500         0.2770         0.0000      0.0000000         1.1570       0.000000
        971.00      -999.2500      -999.2500        49.6060         4.1550        47.3330      -999.2500      0.0908249      -999.2500         0.2670         0.0000      0.0000000         1.1090       0.000000
        971.50      -999.2500      -999.2500        49.0730         4.1230        46.8160      -999.2500      0.0908166      -999.2500         0.2740         0.0000      0.0000000         1.1310       0.000000
        972.00      -999.2500      -999.2500        49.6890         4.0690        47.4500      -999.2500      0.0908084      -999.2500         0.3010         0.0000      0.0000000         1.2260       0.000000
        972.50      -999.2500      -999.2500        50.8200         4.0070        48.6790      -999.2500      0.0908001      -999.2500         0.3420         0.0000      0.0000000         1.3700       0.000000
        973.00      -999.2500      -999.2500        50.2660         3.9780        48.1370      -999.2500      0.0907919      -999.2500         0.3610         0.0000      0.0000000         1.4360       0.000000
        973.50      -999.2500      -999.2500        48.8280         3.9760        46.4980      -999.2500      0.0907836      -999.2500         0.3610         0.0000      0.0000000         1.4360       0.000000
        974.00      -999.2500      -999.2500        48.8910         4.0000        46.5080      -999.2500      0.0907754      -999.2500         0.3720         0.0000      0.0000000         1.4890       0.000000
        974.50      -999.2500      -999.2500        49.9880         4.0080        47.9580      -999.2500      0.0907671      -999.2500         0.3920      5507.0439      0.0000000         1.5710       0.000000
        975.00      -999.2500      -999.2500        51.0290         3.9570        49.3080      -999.2500      0.0907589      -999.2500         0.4140      2193.2329      0.0000000         1.6370       0.001000
        975.50      -999.2500      -999.2500        52.0270         3.8730        50.1060      -999.2500      0.0907506      -999.2500         0.4420      1020.5580      0.0000000         1.7110       0.002000
        976.00      -999.2500      -999.2500        51.9620         3.7680        49.7640      -999.2500      0.0907424      -999.2500         0.4630       579.5990      0.0010000         1.7440       0.003000
        976.50      -999.2500      -999.2500        49.8300         3.6520        47.6680      -999.2500      0.0907341      -999.2500         0.4530       394.9850      0.0010000         1.6550       0.004000
        977.00       116.6370      -999.2500        47.8420         3.6060        45.6490      -999.2500      0.0907259      -999.2500         0.4200       317.7890      0.0010000         1.5150       0.005000
        977.50       116.3060      -999.2500        47.6330         3.6680        45.2960      -999.2500      0.0907176      -999.2500         0.3870       338.4970      0.0010000         1.4190       0.004000
        978.00       115.4870      -999.2500        47.8680         3.7830        45.6700      -999.2500      0.0907094      -999.2500         0.3570       465.0230      0.0010000         1.3490       0.003000
        978.50       114.4560      -999.2500        48.3600         3.9040        46.2760      -999.2500      0.0907012      -999.2500         0.3270      1184.1970      0.0000000         1.2760       0.001000
        979.00       113.2780      -999.2500        49.6090         4.0280        47.3370      -999.2500      0.0906929      -999.2500         0.3010         0.0000      0.0000000         1.2140       0.000000
        979.50       112.0660      -999.2500        50.7660         4.1100        48.3610      -999.2500      0.0906847      -999.2500         0.2890         0.0000      0.0000000         1.1860       0.000000
