~Version Information Block
VERS .                 2.00:  CWLS LOG ASCII STANDARD - VERSION 2.00
WRAP .                   NO:  One line per depth step
~Well Information Block
#MNEM.UNIT        Data Type   Information
#---------- ----------------  -----------
STRT .FT             200.00:  START DEPTH
STOP .FT            2799.00:  STOP DEPTH
STEP .FT               0.50:  STEP
NULL .              -999.25:  NULL VALUE
COMP .                     :  COMPANY
WELL .              19/08-1:  WELL
FLD  .                     :  FIELD
LOC  .                     :  LOCATION
CTRY .                     :  COUNTRY
STAT .                     :  STATE
CNTY .                     :  COUNTY
SRVC .                     :  SERVICE COMPANY
DATE .                     :  DATE
API  .                     :  API NUMBER
UWI  .                     :  UNIQUE WELL ID
~Curve Information Block
#MNEM.UNIT         API CODE   Curve Description
#---------- ----------------  -----------------
DEPTH.FT       99 995 99  1:  Depth
DTC  .US/F     99 995 99  1:  Compressional Wave Slowness
DTS  .US/F     60 530 16  1:  Shear Wave Slowness
GR   .GAPI     30 310  1  1:  Gamma Ray counts
K    .%        31 719 99  1:  Potassium
KTH  .GAPI     31 995 99  1:  Potassium Plus Thorium
RD   .OHMM      1 220 10  1:  Logarithmic Resistivity from ED  ID Depthshifted Depthshifted
RM   .OHMM                 :  Mud resistivity
RS   .OHMM      1 220  9  1:  Shallow resistivity Depthshifted
RTHK .----     31 995 99  1:  Ratio of Thorium to Potassium (TH/K)
RTHU .PPM      31 995 99  1:  Ratio of Thorium to Uranium (TH/U)
RUK  .----     31 995 99  1:  Ratio of Uranium to Potassium (U/K)
TH   .PPM      31 790 99  1:  Thorium
UR   .PPM      31 792 99  1:  Uranium
~Parameter Information Block
#MNEM.UNIT            Value   Description
#---------- ----------------  -----------
PROJECT.     geolog_uk@uxbvllapp02:  
SET  .                 WIRE:  
~Other Information Block
# 
~A       DEPTH            DTC            DTS             GR              K            KTH             RD             RM             RS           RTHK           RTHU            RUK             TH             UR 
# ...
       1077.50       154.4500      -999.2500        53.1040         4.0510        50.3040         0.1040      0.0890986         0.1050         0.6320         0.0000      0.0000000         2.5580       0.000000
       1078.00       154.3110      -999.2500        52.8860         3.9810        50.2230         0.1040      0.0890907         0.1050         0.7460         0.0000      0.0000000         2.9690       0.000000
       1078.50       154.6180      -999.2500        52.8480         3.9360        50.5600         0.1067      0.0890827         0.1068         0.8580         0.0000      0.0000000         3.3790       0.000000
       1079.00       154.7360      -999.2500        52.1680         3.8800        50.2000         0.1467      0.0890748         0.1404         0.9680         0.0000      0.0000000         3.7570       0.000000
       1079.50       155.1530      -999.2500        51.7270         3.7840        49.8470         0.3812      0.0890669         0.3597         1.0860     25787.0059      0.0000000         4.1080       0.000000
       1080.00       155.8530      -999.2500        52.4740         3.6480        50.5070         1.0054      0.0890589         0.9995         1.2240      1303.3490      0.0010000         4.4660       0.003000
       1080.50       157.6980      -999.2500        53.9580         3.5180        51.7650         1.7560      0.0890510         1.8152         1.3590       463.9620      0.0030000         4.7810       0.010000
       1081.00       158.9710      -999.2500        55.9880         3.3850        53.3910         2.1513      0.0890430         2.2688         1.4890       219.6260      0.0070000         5.0400       0.023000
       1081.50       157.8260      -999.2500        58.4170         3.2760        55.4210         2.2275      0.0890351         2.3704         1.5820       146.5070      0.0110000         5.1830       0.035000
       1082.00       155.9320      -999.2500        60.1330         3.2570        57.1620         2.3701      0.0890272         2.5611         1.5760       129.6350      0.0120000         5.1340       0.040000
       1082.50       153.3100      -999.2500        60.0050         3.2990        57.4290         2.6468      0.0890192         2.9213         1.5100       133.0150      0.0110000         4.9820       0.037000
       1083.00       150.9510      -999.2500        58.7380         3.3950        56.3830         2.9034      0.0890113         3.2523         1.3960       177.1730      0.0080000         4.7380       0.027000
       1083.50       148.9250      -999.2500        58.0860         3.4870        55.5340         3.0923      0.0890033         3.5015         1.2690       290.6130      0.0040000         4.4250       0.015000
       1084.00       145.9040      -999.2500        58.7690         3.5440        55.9420         3.2616      0.0889954         3.7236         1.1480       359.6060      0.0030000         4.0690       0.011000
       1084.50       142.8160      -999.2500        59.2440         3.5940        56.3910         3.4992      0.0889875         4.0158         1.0270       341.8050      0.0030000         3.6900       0.011000
       1085.00       137.6800      -999.2500        58.8530         3.6440        56.1410         3.8227      0.0889795         4.4232         0.9340       299.4450      0.0030000         3.4040       0.011000
       1085.50       136.0120      -999.2500        58.6570         3.6860        55.9450         4.0446      0.0889716         4.7529         0.8790       288.8700      0.0030000         3.2420       0.011000
       1086.00       136.8800      -999.2500        59.1920         3.7520        56.5220         3.8673      0.0889637         4.6360         0.8470       309.2390      0.0030000         3.1770       0.010000
       1086.50       141.1870      -999.2500        59.5690         3.8830        57.3110         3.2412      0.0889558         3.9809         0.8350       458.4670      0.0020000         3.2430       0.007000
       1087.00       144.4870      -999.2500        59.3150         4.0430        57.5050         2.4846      0.0889478         3.1294         0.8300      1734.4230      0.0000000         3.3570       0.002000
       1087.50       146.0560      -999.2500        60.2240         4.2500        58.2220         1.9271      0.0889399         2.4610         0.8020         0.0000      0.0000000         3.4080       0.000000
       1088.00       145.6570      -999.2500        63.2890         4.6680        60.5140         1.6620      0.0889320         2.1091         0.7170         0.0000      0.0000000         3.3490       0.000000
       1088.50       145.4370      -999.2500        66.6180         5.0300        62.9750         1.6300      0.0889241         2.0446         0.6520         0.0000      0.0000000         3.2800       0.000000
       1089.00       147.6890      -999.2500        68.6890         5.1290        64.2550         1.7075      0.0889162         2.1394         0.6390         0.0000      0.0000000         3.2780       0.000000
       1089.50       152.6450      -999.2500        70.9120         5.1310        65.6810         1.7756      0.0889082         2.2430         0.6430         0.0000      0.0000000         3.2990       0.000000
       1090.00       157.2050      -999.2500        73.7930         5.0800        68.0580         1.8046      0.0889003         2.3063         0.6560      4966.9668      0.0000000         3.3320       0.001000
       1090.50       161.8360      -999.2500        76.7690         4.9840        71.1050         1.8223      0.0888924         2.3544         0.6860      1361.4659      0.0010000         3.4210       0.003000
       1091.00       160.6210      -999.2500        80.0240         4.8980        74.5290         1.8303      0.0888845         2.3996         0.7280       786.9490      0.0010000         3.5660       0.005000
       1091.50       159.5570      -999.2500        82.7410         4.8720        76.9760         1.8111      0.0888766         2.4212         0.7510       597.7860      0.0010000         3.6600       0.006000
       1092.00       158.2310      -999.2500        82.3970         4.8720        76.4530         1.7612      0.0888687         2.3995         0.7600       628.6440      0.0010000         3.7020       0.006000
       1092.50       157.2750      -999.2500        78.9790         4.8900        73.2940         1.6964      0.0888608         2.3465         0.7790      1080.2290      0.0010000         3.8080       0.004000
       1093.00       156.2570      -999.2500        75.5090         4.9200        70.1990         1.6404      0.0888529         2.2850         0.8030      3693.4829      0.0000000         3.9500       0.001000
       1093.50       155.0950      -999.2500        74.6180         4.9470        69.6390         1.6124      0.0888450         2.2465         0.8290         0.0000      0.0000000         4.1000       0.000000
       1094.00       155.5450      -999.2500        76.3410         4.9880        71.4150         1.6262      0.0888370         2.2574         0.8980         0.0000      0.0000000         4.4810       0.000000
       1094.50       157.2820      -999.2500        78.5940         5.0410        73.1340         1.6758      0.0888291         2.3213         1.0030         0.0000      0.0000000         5.0540       0.000000
       1095.00       158.7930      -999.2500        79.3820         5.0820        73.5900         1.7442      0.0888212         2.4174         1.0980         0.0000      0.0000000         5.5800       0.000000
       1095.50       158.2620      -999.2500        78.1220         5.1210        72.9720         1.8061      0.0888133         2.5082         1.1820         0.0000      0.0000000         6.0510       0.000000
       1096.00       158.1090      -999.2500        76.0230         5.1530        71.7760         1.8355      0.0888054         2.5549         1.2670         0.0000      0.0000000         6.5270       0.000000
       1096.50       156.2450      -999.2500        75.9730         5.1870        71.8250         1.8326      0.0887975         2.5527         1.3270         0.0000      0.0000000         6.8810       0.000000
