~Version Information Block
VERS .                 2.00:  CWLS LOG ASCII STANDARD - VERSION 2.00
WRAP .                   NO:  One line per depth step
~Well Information Block
#MNEM.UNIT        Data Type   Information
#---------- ----------------  -----------
STRT .FT             200.00:  START DEPTH
STOP .FT            2799.00:  STOP DEPTH
STEP .FT               0.50:  STEP
NULL .              -999.25:  NULL VALUE
COMP .                     :  COMPANY
WELL .              19/08-1:  WELL
FLD  .                     :  FIELD
LOC  .                     :  LOCATION
CTRY .                     :  COUNTRY
STAT .                     :  STATE
CNTY .                     :  COUNTY
SRVC .                     :  SERVICE COMPANY
DATE .                     :  DATE
API  .                     :  API NUMBER
UWI  .                     :  UNIQUE WELL ID
~Curve Information Block
#MNEM.UNIT         API CODE   Curve Description
#---------- ----------------  -----------------
DEPTH.FT       99 995 99  1:  Depth
DTC  .US/F     99 995 99  1:  Compressional Wave Slowness
DTS  .US/F     60 530 16  1:  Shear Wave Slowness
GR   .GAPI     30 310  1  1:  Gamma Ray counts
K    .%        31 719 99  1:  Potassium
KTH  .GAPI     31 995 99  1:  Potassium Plus Thorium
RD   .OHMM      1 220 10  1:  Logarithmic Resistivity from ED  ID Depthshifted Depthshifted
RM   .OHMM                 :  Mud resistivity
RS   .OHMM      1 220  9  1:  Shallow resistivity Depthshifted
RTHK .----     31 995 99  1:  Ratio of Thorium to Potassium (TH/K)
RTHU .PPM      31 995 99  1:  Ratio of Thorium to Uranium (TH/U)
RUK  .----     31 995 99  1:  Ratio of Uranium to Potassium (U/K)
TH   .PPM      31 790 99  1:  Thorium
UR   .PPM      31 792 99  1:  Uranium
~Parameter Information Block
#MNEM.UNIT            Value   Description
#---------- ----------------  -----------
PROJECT.     geolog_uk@uxbvllapp02:  
SET  .                 WIRE:  
~Other Information Block
# 
~A       DEPTH            DTC            DTS             GR              K            KTH             RD             RM             RS           RTHK           RTHU            RUK             TH             UR 
# ...
       1779.50       128.4000       315.3100        59.1910         4.5610        58.5540         0.8071      0.0791789         0.8685         0.3020       773.5570      0.0000000         1.3790       0.002000
       1780.00       129.0000       305.4700        57.9750         4.5550        57.3290         0.8308      0.0791726         0.8909         0.3200      3592.0559      0.0000000         1.4570       0.000000
       1780.50       129.7290       304.0640        58.1130         4.5600        57.3470         0.8366      0.0791664         0.8948         0.3350         0.0000      0.0000000         1.5290       0.000000
       1781.00       130.0770       311.8390        59.7120         4.5740        58.8710         0.8289      0.0791601         0.8806         0.3430         0.0000      0.0000000         1.5700       0.000000
       1781.50       129.8260       328.2490        61.5410         4.6160        60.7230         0.8226      0.0791538         0.8664         0.3460         0.0000      0.0000000         1.5980       0.000000
       1782.00       129.9170       343.5040        63.2140         4.6740        62.3530         0.8193      0.0791475         0.8587         0.3510         0.0000      0.0000000         1.6390       0.000000
       1782.50       129.3380       351.0230        64.2540         4.6920        63.2230         0.8118      0.0791413         0.8508         0.3540       845.2840      0.0000000         1.6630       0.002000
       1783.00       128.5210       343.7410        63.5810         4.6700        62.4060         0.8020      0.0791350         0.8374         0.3530       194.2020      0.0020000         1.6470       0.008000
       1783.50       125.8800       322.6320        62.7810         4.6100        61.6290         0.7929      0.0791287         0.8198         0.3480        59.4760      0.0060000         1.6060       0.027000
       1784.00       123.2320       292.5870        63.5180         4.4900        62.4770         0.7803      0.0791225         0.8027         0.3470        29.4600      0.0120000         1.5580       0.053000
       1784.50       120.9310       269.3410        64.7930         4.3760        63.7840         0.7646      0.0791162         0.7875         0.3540        21.8930      0.0160000         1.5500       0.071000
       1785.00       120.6000       258.0130        64.9400         4.3500        63.9020         0.7540      0.0791099         0.7806         0.3850        23.6590      0.0160000         1.6730       0.071000
       1785.50       121.6540       260.6690        64.5470         4.3930        63.4370         0.7539      0.0791037         0.7809         0.4360        30.9420      0.0140000         1.9170       0.062000
       1786.00       124.5050       273.4020        64.2210         4.4780        63.1370         0.7630      0.0790974         0.7873         0.4970        47.2870      0.0110000         2.2270       0.047000
       1786.50       126.1410       287.8640        64.0320         4.5950        63.1750         0.7802      0.0790911         0.7997         0.5630       110.8930      0.0050000         2.5890       0.023000
       1787.00       127.9120       312.6040        64.2070         4.7250        63.5480         0.8037      0.0790849         0.8182         0.6280       401.9600      0.0020000         2.9690       0.007000
       1787.50       128.6430       327.7670        64.5970         4.8370        63.9050         0.8277      0.0790786         0.8417         0.6760      2207.8201      0.0000000         3.2710       0.001000
       1788.00       131.8370       336.3680        65.4470         4.9190        64.5300         0.8481      0.0790723         0.8657         0.6960         0.0000      0.0000000         3.4240       0.000000
       1788.50       132.7380       332.3270        67.4100         5.0060        66.2400         0.8644      0.0790661         0.8842         0.6890         0.0000      0.0000000         3.4470       0.000000
       1789.00       132.2810       325.6870        69.2370         5.0670        67.9880         0.8759      0.0790598         0.9004         0.6660         0.0000      0.0000000         3.3730       0.000000
       1789.50       129.4940       323.0460        69.6800         5.0690        68.5960         0.8887      0.0790536         0.9201         0.6290     27315.1797      0.0000000         3.1870       0.000000
       1790.00       126.8870       328.0380        69.6040         5.0240        68.6910         0.9062      0.0790473         0.9419         0.5830      2459.2471      0.0000000         2.9300       0.001000
       1790.50       125.0000       340.9350        69.7840         4.9500        68.8630         0.9143      0.0790410         0.9566         0.5550      1192.6479      0.0000000         2.7470       0.002000
       1791.00       125.1270       350.2430        69.9050         4.8680        68.9150         0.9006      0.0790348         0.9535         0.5600      1087.7850      0.0010000         2.7250       0.003000
       1791.50       127.0220       354.4600        69.8390         4.7670        68.7970         0.8755      0.0790285         0.9322         0.6040      1120.9600      0.0010000         2.8790       0.003000
       1792.00       130.3750       345.0210        69.6060         4.6600        68.5080         0.8622      0.0790223         0.9147         0.6730      1249.3170      0.0010000         3.1380       0.003000
       1792.50       130.7750       338.1980        69.8840         4.5880        68.8020         0.8899      0.0790160         0.9392         0.7430      1712.9580      0.0000000         3.4080       0.002000
       1793.00       132.0290       327.9880        69.9090         4.5610        69.0280         0.9878      0.0790098         1.0413         0.7870      4663.2339      0.0000000         3.5910       0.001000
       1793.50       133.5440       313.6410        68.4770         4.5870        67.7540         1.1271      0.0790035         1.2000         0.7430         0.0000      0.0000000         3.4100       0.000000
       1794.00       135.5450       283.9530        66.6580         4.6380        65.8060         1.2240      0.0789973         1.3306         0.6430         0.0000      0.0000000         2.9800       0.000000
       1794.50       137.8750       290.6450        65.6410         4.6990        64.5800         1.2122      0.0789910         1.3493         0.5670         0.0000      0.0000000         2.6650       0.000000
       1795.00       141.5740       292.2040        65.1390         4.7760        64.1570         1.1008      0.0789848         1.2426         0.5080         0.0000      0.0000000         2.4280       0.000000
       1795.50       148.4810       295.5080        65.1700         4.8650        64.4520         0.9662      0.0789785         1.0920         0.4680         0.0000      0.0000000         2.2770       0.000000
       1796.00       152.2700       289.5610        65.5720         4.9710        64.9000         0.8862      0.0789723         0.9931         0.4490         0.0000      0.0000000         2.2310       0.000000
       1796.50       153.4050       301.0460        65.5980         5.0710        64.8690         0.8736      0.0789660         0.9714         0.4290         0.0000      0.0000000         2.1760       0.000000
       1797.00       152.1970       296.0350        65.5940         5.1370        64.9410         0.8874      0.0789598         0.9881         0.4010         0.0000      0.0000000         2.0620       0.000000
       1797.50       149.7590       285.0260        65.6300         5.1630        65.0840         0.8953      0.0789535         0.9999         0.3650         0.0000      0.0000000         1.8830       0.000000
       1798.00       143.6730       287.9160        65.8610         5.1450        65.1950         0.8951      0.0789473         0.9983         0.3260         0.0000      0.0000000         1.6760       0.000000
       1798.50       138.0660       295.3200        66.6000         5.0960        65.6960         0.8896      0.0789411         0.9872         0.2900         0.0000      0.0000000         1.4800       0.000000
