~Version Information Block
VERS .                 2.00:  CWLS LOG ASCII STANDARD - VERSION 2.00
WRAP .                   NO:  One line per depth step
~Well Information Block
#MNEM.UNIT        Data Type   Information
#---------- ----------------  -----------
STRT .FT             200.00:  START DEPTH
STOP .FT            2799.00:  STOP DEPTH
STEP .FT               0.50:  STEP
NULL .              -999.25:  NULL VALUE
COMP .                     :  COMPANY
WELL .              19/08-1:  WELL
FLD  .                     :  FIELD
LOC  .                     :  LOCATION
CTRY .                     :  COUNTRY
STAT .                     :  STATE
CNTY .                     :  COUNTY
SRVC .                     :  SERVICE COMPANY
DATE .                     :  DATE
API  .                     :  API NUMBER
UWI  .                     :  UNIQUE WELL ID
~Curve Information Block
#MNEM.UNIT         API CODE   Curve Description
#---------- ----------------  -----------------
DEPTH.FT       99 995 99  1:  Depth
DTC  .US/F     99 995 99  1:  Compressional Wave Slowness
DTS  .US/F     60 530 16  1:  Shear Wave Slowness
GR   .GAPI     30 310  1  1:  Gamma Ray counts
K    .%        31 719 99  1:  Potassium
KTH  .GAPI     31 995 99  1:  Potassium Plus Thorium
RD   .OHMM      1 220 10  1:  Logarithmic Resistivity from ED  ID Depthshifted Depthshifted
RM   .OHMM                 :  Mud resistivity
RS   .OHMM      1 220  9  1:  Shallow resistivity Depthshifted
RTHK .----     31 995 99  1:  Ratio of Thorium to Potassium (TH/K)
RTHU .PPM      31 995 99  1:  Ratio of Thorium to Uranium (TH/U)
RUK  .----     31 995 99  1:  Ratio of Uranium to Potassium (U/K)
TH   .PPM      31 790 99  1:  Thorium
UR   .PPM      31 792 99  1:  Uranium
~Parameter Information Block
#MNEM.UNIT            Value   Description
#---------- ----------------  -----------
PROJECT.     geolog_uk@uxbvllapp02:  
SET  .                 WIRE:  
~Other Information Block
# 
~A       DEPTH            DTC            DTS             GR              K            KTH             RD             RM             RS           RTHK           RTHU            RUK             TH             UR 
# ...
       1545.50       142.6930       436.5360        71.7420         4.9140        71.4840         0.7713      0.0822306         0.7671         0.4110        37.6150      0.0110000         2.0190       0.054000
       1546.00       143.7760       437.8120        72.4470         5.0660        72.3290         0.7991      0.0822238         0.7860         0.3880        57.0010      0.0070000         1.9630       0.034000
       1546.50       145.0760       456.2420        73.0230         5.2440        73.2760         0.8336      0.0822171         0.8133         0.3420       121.7690      0.0030000         1.7940       0.015000
       1547.00       146.4700       449.3090        72.4640         5.3800        72.9600         0.8397      0.0822103         0.8187         0.3010       783.5850      0.0000000         1.6210       0.002000
       1547.50       147.6670       442.1540        72.4900         5.4560        72.9670         0.8003      0.0822035         0.7829         0.2810      2774.2600      0.0000000         1.5320       0.001000
       1548.00       147.3420       432.0540        73.8640         5.4540        74.2990         0.7373      0.0821968         0.7212         0.2870      2312.2371      0.0000000         1.5680       0.001000
       1548.50       146.2370       428.5020        74.5010         5.3970        74.8650         0.6895      0.0821900         0.6699         0.3170      2573.0791      0.0000000         1.7090       0.001000
       1549.00       144.8370       430.2240        73.9300         5.3660        74.0760         0.6751      0.0821832         0.6460         0.3750      3935.4951      0.0000000         2.0100       0.001000
       1549.50       144.1500       445.0600        74.1850         5.3590        74.1310         0.6948      0.0821765         0.6530         0.4690     11875.1572      0.0000000         2.5130       0.000000
       1550.00       144.8250       464.6520        75.1780         5.3290        75.1990         0.7403      0.0821697         0.6874         0.5790     24544.5527      0.0000000         3.0870       0.000000
       1550.50       146.7090       477.9620        74.7650         5.2150        74.9950         0.7910      0.0821630         0.7316         0.6800       471.4050      0.0010000         3.5480       0.008000
       1551.00       148.7080       481.9380        73.0490         5.0220        73.2480         0.8267      0.0821562         0.7649         0.7690       102.6250      0.0070000         3.8630       0.038000
       1551.50       150.4780       471.7360        72.0990         4.8330        72.0260         0.8444      0.0821494         0.7797         0.8250        52.5410      0.0160000         3.9890       0.076000
       1552.00       150.3210       444.8060        72.5540         4.6810        72.2130         0.8442      0.0821427         0.7783         0.8350        39.4140      0.0210000         3.9080       0.099000
       1552.50       149.8140       422.3910        72.7720         4.6110        72.2730         0.8296      0.0821359         0.7654         0.8180        35.6470      0.0230000         3.7740       0.106000
       1553.00       147.4070       415.5870        72.7890         4.7020        72.2590         0.8217      0.0821292         0.7541         0.7950        36.6320      0.0220000         3.7370       0.102000
       1553.50       145.0370       417.1580        73.1880         4.9560        72.8200         0.8571      0.0821224         0.7774         0.7700        46.5900      0.0170000         3.8150       0.082000
       1554.00       143.4000       420.0270        73.6300         5.2530        73.5610         0.9756      0.0821157         0.8793         0.7570        90.2420      0.0080000         3.9790       0.044000
       1554.50       141.5230       418.9000        73.5730         5.4910        73.7320         1.1685      0.0821089         1.0850         0.7540       304.5340      0.0020000         4.1380       0.014000
       1555.00       140.0380       418.2670        73.5590         5.6230        73.8290         1.3577      0.0821021         1.3533         0.7370       660.1030      0.0010000         4.1440       0.006000
       1555.50       138.8170       418.3960        74.1380         5.5740        74.4330         1.4238      0.0820954         1.5470         0.7160       153.1680      0.0050000         3.9920       0.026000
       1556.00       136.3780       416.4150        75.4930         5.3320        75.5960         1.3162      0.0820886         1.5361         0.7070        51.9800      0.0140000         3.7720       0.073000
       1556.50       132.9120       396.0580        76.0760         5.0160        75.8180         1.1253      0.0820819         1.3615         0.7100        28.7600      0.0250000         3.5620       0.124000
       1557.00       127.9490       374.9710        75.2120         4.7490        74.5550         0.9950      0.0820752         1.2085         0.7110        19.8720      0.0360000         3.3750       0.170000
       1557.50       127.8800       344.6150        74.7570         4.5980        73.8780         0.9857      0.0820684         1.1886         0.6810        16.5480      0.0410000         3.1300       0.189000
       1558.00       131.9790       305.4660        74.8870         4.5490        73.9920         1.0492      0.0820617         1.2593         0.6380        15.8880      0.0400000         2.9040       0.183000
       1558.50       134.7240       274.0480        73.7450         4.5600        72.9560         1.0948      0.0820549         1.3148         0.5900        16.8010      0.0350000         2.6900       0.160000
       1559.00       135.2570       248.5230        70.6170         4.6030        70.0320         1.0701      0.0820482         1.2938         0.5070        20.2850      0.0250000         2.3310       0.115000
       1559.50       133.0740       256.2950        67.3770         4.6140        66.9490         0.9903      0.0820414         1.2043         0.4430        25.0900      0.0180000         2.0420       0.081000
       1560.00       130.6260       288.1310        66.1450         4.6060        65.8240         0.9062      0.0820347         1.0975         0.4410        27.5790      0.0160000         2.0310       0.074000
       1560.50       129.0240       331.2250        67.8580         4.6050        67.5990         0.8511      0.0820280         1.0220         0.4760        28.5760      0.0170000         2.1940       0.077000
       1561.00       128.7270       352.4980        71.7580         4.6300        71.4390         0.8279      0.0820212         0.9897         0.5790        30.2180      0.0190000         2.6800       0.089000
       1561.50       130.3430       367.4020        77.0550         4.7220        76.6000         0.8251      0.0820145         0.9888         0.7330        34.1190      0.0210000         3.4620       0.101000
       1562.00       132.7260       383.5640        81.6410         4.8290        81.1470         0.8322      0.0820078         1.0007         0.8200        39.1410      0.0210000         3.9600       0.101000
       1562.50       135.6850       394.0290        83.2310         4.8810        82.7870         0.8456      0.0820010         1.0201         0.8200        40.6740      0.0200000         4.0020       0.098000
       1563.00       137.4990       400.5710        82.0500         4.8960        81.5790         0.8651      0.0819943         1.0446         0.7750        35.4500      0.0220000         3.7960       0.107000
       1563.50       137.9820       396.4140        79.9480         4.8840        79.3680         0.8878      0.0819875         1.0705         0.7010        26.5750      0.0260000         3.4230       0.129000
       1564.00       138.0940       409.6850        78.0040         4.8360        77.3210         0.9062      0.0819808         1.0947         0.6270        18.4770      0.0340000         3.0300       0.164000
       1564.50       138.4820       423.1840        75.0250         4.6890        73.8880         0.9161      0.0819741         1.1096         0.5330        10.1360      0.0530000         2.4990       0.247000
