~Version Information Block
VERS .                 2.00:  CWLS LOG ASCII STANDARD - VERSION 2.00
WRAP .                   NO:  One line per depth step
~Well Information Block
#MNEM.UNIT        Data Type   Information
#---------- ----------------  -----------
STRT .FT             200.00:  START DEPTH
STOP .FT            2799.00:  STOP DEPTH
STEP .FT               0.50:  STEP
NULL .              -999.25:  NULL VALUE
COMP .                     :  COMPANY
WELL .              19/08-1:  WELL
FLD  .                     :  FIELD
LOC  .                     :  LOCATION
CTRY .                     :  COUNTRY
STAT .                     :  STATE
CNTY .                     :  COUNTY
SRVC .                     :  SERVICE COMPANY
DATE .                     :  DATE
API  .                     :  API NUMBER
UWI  .                     :  UNIQUE WELL ID
~Curve Information Block
#MNEM.UNIT         API CODE   Curve Description
#---------- ----------------  -----------------
DEPTH.FT       99 995 99  1:  Depth
DTC  .US/F     99 995 99  1:  Compressional Wave Slowness
DTS  .US/F     60 530 16  1:  Shear Wave Slowness
GR   .GAPI     30 310  1  1:  Gamma Ray counts
K    .%        31 719 99  1:  Potassium
KTH  .GAPI     31 995 99  1:  Potassium Plus Thorium
RD   .OHMM      1 220 10  1:  Logarithmic Resistivity from ED  ID Depthshifted Depthshifted
RM   .OHMM                 :  Mud resistivity
RS   .OHMM      1 220  9  1:  Shallow resistivity Depthshifted
RTHK .----     31 995 99  1:  Ratio of Thorium to Potassium (TH/K)
RTHU .PPM      31 995 99  1:  Ratio of Thorium to Uranium (TH/U)
RUK  .----     31 995 99  1:  Ratio of Uranium to Potassium (U/K)
TH   .PPM      31 790 99  1:  Thorium
UR   .PPM      31 792 99  1:  Uranium
~Parameter Information Block
#MNEM.UNIT            Value   Description
#---------- ----------------  -----------
PROJECT.     geolog_uk@uxbvllapp02:  
SET  .                 WIRE:  
~Other Information Block
# 
~A       DEPTH            DTC            DTS             GR              K            KTH             RD             RM             RS           RTHK           RTHU            RUK             TH             UR 
# ...
       2579.00       127.1480       319.1700        68.5110         4.4920        64.0050         0.8223      0.0702690         0.8822         0.7640         0.0000      0.0000000         3.4320       0.000000
       2579.50       127.6870       324.0460        68.7930         4.3370        64.2940         0.8276      0.0702641         0.8894         0.8790         0.0000      0.0000000         3.8140       0.000000
       2580.00       127.4260       325.2090        68.6780         4.2820        64.0830         0.8181      0.0702591         0.8837         0.9610         0.0000      0.0000000         4.1170       0.000000
       2580.50       127.4240       321.0040        69.3510         4.2770        64.9380         0.8107      0.0702542         0.8776         0.9950     18466.8770      0.0000000         4.2570       0.000000
       2581.00       127.0850       321.1960        70.6440         4.3070        66.3740         0.8199      0.0702492         0.8851         0.9650      3581.7959      0.0000000         4.1540       0.001000
       2581.50       127.4630       320.4610        72.1780         4.3450        67.4540         0.8363      0.0702443         0.9050         0.8850      1056.0880      0.0010000         3.8450       0.004000
       2582.00       127.0290       319.6200        72.6960         4.3610        67.2080         0.8470      0.0702394         0.9223         0.7800       304.8270      0.0030000         3.4020       0.011000
       2582.50       127.4350       320.7870        71.0650         4.3130        65.2990         0.8480      0.0702344         0.9249         0.6510       107.8900      0.0060000         2.8080       0.026000
       2583.00       127.3930       320.5440        69.0560         4.2550        63.7230         0.8543      0.0702295         0.9223         0.5710        65.9990      0.0090000         2.4310       0.037000
       2583.50       127.4350       324.6840        68.8690         4.2240        63.9390         0.8776      0.0702245         0.9382         0.5850        62.8410      0.0090000         2.4700       0.039000
       2584.00       126.6320       324.9450        70.3450         4.2000        65.2340         0.9206      0.0702196         0.9779         0.6700        66.2420      0.0100000         2.8130       0.042000
       2584.50       125.7400       323.3070        72.2130         4.1720        66.8200         0.9674      0.0702147         1.0226         0.7840        65.5140      0.0120000         3.2710       0.050000
       2585.00       124.8280       319.8190        73.4700         4.1440        68.2630         0.9892      0.0702097         1.0423         0.8750        60.1260      0.0150000         3.6240       0.060000
       2585.50       124.4990       316.0680        73.7050         4.1270        68.9200         0.9757      0.0702048         1.0278         0.9140        51.8060      0.0180000         3.7710       0.073000
       2586.00       123.4290       313.7600        73.0820         4.1340        68.5410         0.9541      0.0701999         0.9989         0.8950        43.7920      0.0200000         3.7000       0.084000
       2586.50       121.0670       308.8450        73.2320         4.2030        68.7160         0.9538      0.0701949         0.9897         0.8380        41.0950      0.0200000         3.5200       0.086000
       2587.00       118.0340       304.2780        74.9700         4.3620        70.4680         0.9856      0.0701900         1.0170         0.7340        44.3360      0.0170000         3.2000       0.072000
       2587.50       116.8030       299.0510        76.1560         4.5130        71.6970         1.0405      0.0701851         1.0705         0.6400        54.9510      0.0120000         2.8870       0.053000
       2588.00       116.7450       296.5210        74.7470         4.6150        70.3300         1.0965      0.0701801         1.1265         0.5900        83.6860      0.0070000         2.7210       0.033000
       2588.50       109.5540       295.9040        72.5070         4.6690        68.0930         1.1291      0.0701752         1.1627         0.5740       157.4100      0.0040000         2.6820       0.017000
       2589.00       100.0540       297.4040        71.4360         4.6550        67.0860         1.1347      0.0701703         1.1705         0.5720       144.1360      0.0040000         2.6620       0.018000
       2589.50        88.1750       296.9280        71.8190         4.5930        67.6680         1.1305      0.0701653         1.1629         0.5680        67.2500      0.0080000         2.6080       0.039000
       2590.00        83.7180       304.3610        73.0360         4.5040        68.9980         1.1381      0.0701604         1.1638         0.5980        41.1900      0.0150000         2.6940       0.065000
       2590.50        85.2110       310.3880        74.5090         4.4150        70.5290         1.1652      0.0701555         1.1893         0.6850        34.4380      0.0200000         3.0230       0.088000
       2591.00        93.4410       304.2630        75.2530         4.3500        71.4550         1.2068      0.0701505         1.2353         0.7780        32.2630      0.0240000         3.3820       0.105000
       2591.50        98.9840       290.8890        75.4150         4.3120        71.8100         1.2561      0.0701456         1.2915         0.8350        29.7730      0.0280000         3.5990       0.121000
       2592.00       104.0570       281.1550        76.6630         4.2830        72.9040         1.3025      0.0701407         1.3412         0.8740        26.6030      0.0330000         3.7420       0.141000
       2592.50       109.6640       273.1340        78.2060         4.2490        74.1580         1.3359      0.0701357         1.3767         0.8820        22.2170      0.0400000         3.7470       0.169000
       2593.00       112.2870       271.9880        78.1010         4.2170        73.9390         1.3580      0.0701308         1.4008         0.8370        17.5880      0.0480000         3.5300       0.201000
       2593.50       113.4320       271.9520        76.9210         4.2150        72.7780         1.3663      0.0701259         1.4102         0.7490        14.4810      0.0520000         3.1570       0.218000
       2594.00       113.0390       270.7040        75.6210         4.2510        71.5690         1.3372      0.0701210         1.3821         0.6650        13.4700      0.0490000         2.8250       0.210000
       2594.50       112.1640       271.0110        73.7980         4.3550        69.9890         1.2591      0.0701161         1.3014         0.5920        15.7150      0.0380000         2.5770       0.164000
       2595.00       109.7760       270.8840        71.3210         4.4990        67.8000         1.1526      0.0701111         1.1910         0.5340        23.0360      0.0230000         2.4040       0.104000
       2595.50       109.8380       269.5480        68.8710         4.6270        65.7500         1.0544      0.0701062         1.0861         0.5010        45.1900      0.0110000         2.3190       0.051000
       2596.00       110.9830       266.8360        67.4830         4.7020        64.8210         0.9945      0.0701013         1.0164         0.4810       152.5950      0.0030000         2.2610       0.015000
       2596.50       112.3960       259.1100        66.2290         4.6950        63.7300         0.9980      0.0700964         1.0082         0.4730       490.3720      0.0010000         2.2210       0.005000
       2597.00       113.8570       254.8310        62.8620         4.5130        60.3540         1.0893      0.0700914         1.0901         0.4620       652.1330      0.0010000         2.0870       0.003000
       2597.50       115.6960       253.2630        57.9220         4.2070        55.4200         1.3021      0.0700865         1.3111         0.4630       624.3570      0.0010000         1.9480       0.003000
       2598.00       116.8530       261.8930        55.1020         4.0500        52.2070         1.6101      0.0700816         1.6716         0.4860      1241.1240      0.0000000         1.9690       0.002000
