~Version Information Block
VERS .                 2.00:  CWLS LOG ASCII STANDARD - VERSION 2.00
WRAP .                   NO:  One line per depth step
~Well Information Block
#MNEM.UNIT        Data Type   Information
#---------- ----------------  -----------
STRT .FT             200.00:  START DEPTH
STOP .FT            2799.00:  STOP DEPTH
STEP .FT               0.50:  STEP
NULL .              -999.25:  NULL VALUE
COMP .                     :  COMPANY
WELL .              19/08-1:  WELL
FLD  .                     :  FIELD
LOC  .                     :  LOCATION
CTRY .                     :  COUNTRY
STAT .                     :  STATE
CNTY .                     :  COUNTY
SRVC .                     :  SERVICE COMPANY
DATE .                     :  DATE
API  .                     :  API NUMBER
UWI  .                     :  UNIQUE WELL ID
~Curve Information Block
#MNEM.UNIT         API CODE   Curve Description
#---------- ----------------  -----------------
DEPTH.FT       99 995 99  1:  Depth
DTC  .US/F     99 995 99  1:  Compressional Wave Slowness
DTS  .US/F     60 530 16  1:  Shear Wave Slowness
GR   .GAPI     30 310  1  1:  Gamma Ray counts
K    .%        31 719 99  1:  Potassium
KTH  .GAPI     31 995 99  1:  Potassium Plus Thorium
RD   .OHMM      1 220 10  1:  Logarithmic Resistivity from ED  ID Depthshifted Depthshifted
RM   .OHMM                 :  Mud resistivity
RS   .OHMM      1 220  9  1:  Shallow resistivity Depthshifted
RTHK .----     31 995 99  1:  Ratio of Thorium to Potassium (TH/K)
RTHU .PPM      31 995 99  1:  Ratio of Thorium to Uranium (TH/U)
RUK  .----     31 995 99  1:  Ratio of Uranium to Potassium (U/K)
TH   .PPM      31 790 99  1:  Thorium
UR   .PPM      31 792 99  1:  Uranium
~Parameter Information Block
#MNEM.UNIT            Value   Description
#---------- ----------------  -----------
PROJECT.     geolog_uk@uxbvllapp02:  
SET  .                 WIRE:  
~Other Information Block
# 
~A       DEPTH            DTC            DTS             GR              K            KTH             RD             RM             RS           RTHK           RTHU            RUK             TH             UR 
# ...
       2345.00       133.2270       341.6260        68.5040         4.7500        67.2670         0.8349      0.0726622         0.9059         0.4390      1367.6340      0.0000000         2.0850       0.002000
       2345.50       134.4900       361.2070        68.6080         4.7950        67.3090         0.8296      0.0726569         0.8970         0.3710      1121.8070      0.0000000         1.7770       0.002000
       2346.00       134.6610       372.1490        68.9660         4.8030        67.2970         0.8218      0.0726516         0.8843         0.3490       495.9430      0.0010000         1.6770       0.003000
       2346.50       134.0250       380.3240        68.5450         4.7720        66.6090         0.8183      0.0726463         0.8758         0.3700       305.5010      0.0010000         1.7670       0.006000
       2347.00       133.6570       374.1050        67.3070         4.7290        65.6380         0.8189      0.0726410         0.8750         0.4040       274.6600      0.0010000         1.9080       0.007000
       2347.50       133.8030       373.1490        66.1960         4.6770        64.8850         0.8244      0.0726357         0.8813         0.4240       219.5370      0.0020000         1.9840       0.009000
       2348.00       133.9230       349.5100        66.9580         4.6480        65.4580         0.8467      0.0726305         0.8992         0.4080       143.5570      0.0030000         1.8960       0.013000
       2348.50       134.4950       357.3310        69.1820         4.6780        67.1100         0.8905      0.0726252         0.9398         0.3590       100.6090      0.0040000         1.6790       0.017000
       2349.00       135.2830       358.9020        69.6070         4.7360        67.2130         0.9501      0.0726199         1.0009         0.3060        72.0100      0.0040000         1.4470       0.020000
       2349.50       135.7920       374.8890        67.8930         4.8060        65.5290         1.0075      0.0726146         1.0666         0.2490        52.9470      0.0050000         1.1970       0.023000
       2350.00       135.0790       379.1290        66.8680         4.8600        64.3760         1.0545      0.0726093         1.1190         0.2140        48.2180      0.0040000         1.0390       0.022000
       2350.50       132.5260       389.1140        67.5590         4.8390        64.6520         1.0870      0.0726040         1.1520         0.2220        52.9950      0.0040000         1.0760       0.020000
       2351.00       129.0780       379.1170        68.1640         4.7880        65.2630         1.1017      0.0725988         1.1667         0.2500        67.8920      0.0040000         1.1960       0.018000
       2351.50       125.4650       373.7510        66.8880         4.7020        64.4580         1.1174      0.0725935         1.1870         0.2950       106.3880      0.0030000         1.3890       0.013000
       2352.00       122.1070       352.2570        63.8140         4.5290        61.5970         1.1596      0.0725882         1.2341         0.3740       157.6920      0.0020000         1.6940       0.011000
       2352.50       119.3450       329.9660        60.7630         4.3840        58.3850         1.2263      0.0725829         1.3049         0.4360       196.0140      0.0020000         1.9130       0.010000
       2353.00       116.7650       299.7940        59.1440         4.3540        56.6480         1.2962      0.0725777         1.3797         0.4550       270.5460      0.0020000         1.9810       0.007000
       2353.50       114.6190       282.0580        59.4160         4.3880        56.8870         1.3490      0.0725724         1.4394         0.4620       605.8740      0.0010000         2.0260       0.003000
       2354.00       112.0830       266.0630        60.8720         4.4310        58.4410         1.3883      0.0725671         1.4847         0.4720      4683.3008      0.0000000         2.0930       0.000000
       2354.50       109.0460       257.0060        61.8040         4.4450        59.6370         1.4272      0.0725618         1.5305         0.4940         0.0000      0.0000000         2.1970       0.000000
       2355.00       105.5260       245.6570        61.7090         4.4540        59.7490         1.4644      0.0725566         1.5792         0.5140         0.0000      0.0000000         2.2890       0.000000
       2355.50       102.5690       243.5140        61.3500         4.4740        59.4520         1.4788      0.0725513         1.6084         0.5150         0.0000      0.0000000         2.3040       0.000000
       2356.00       100.3300       242.8590        61.0690         4.5100        59.0420         1.4547      0.0725460         1.5911         0.4970         0.0000      0.0000000         2.2430       0.000000
       2356.50        98.6340       241.6730        60.7600         4.5670        58.3900         1.3915      0.0725408         1.5213         0.4700         0.0000      0.0000000         2.1480       0.000000
       2357.00        97.6310       228.6630        60.8380         4.6350        58.1700         1.3128      0.0725355         1.4301         0.4440         0.0000      0.0000000         2.0590       0.000000
       2357.50        97.0250       218.1870        62.0050         4.6930        59.1480         1.2490      0.0725302         1.3569         0.4370         0.0000      0.0000000         2.0490       0.000000
       2358.00        96.9660       210.3130        64.8820         4.6950        61.6700         1.2132      0.0725249         1.3184         0.4810         0.0000      0.0000000         2.2580       0.000000
       2358.50        96.6890       207.8970        67.3840         4.6210        63.9400         1.2127      0.0725197         1.3195         0.5760         0.0000      0.0000000         2.6630       0.000000
       2359.00        96.7030       210.0100        67.9400         4.5470        64.8200         1.2419      0.0725144         1.3525         0.6380      6335.3740      0.0000000         2.9000       0.000000
       2359.50        97.4680       213.3230        67.8920         4.4940        65.1630         1.2676      0.0725091         1.3849         0.6490      3428.1489      0.0000000         2.9160       0.001000
       2360.00        99.2360       216.2210        67.7780         4.4840        65.0140         1.2637      0.0725039         1.3871         0.6170      3220.2891      0.0000000         2.7680       0.001000
       2360.50       101.3610       222.2530        66.7950         4.5490        63.9530         1.2395      0.0724986         1.3626         0.5270      2059.9009      0.0000000         2.3990       0.001000
       2361.00       103.4890       228.5690        66.3160         4.6460        63.6850         1.2217      0.0724934         1.3401         0.4310      1604.2240      0.0000000         2.0050       0.001000
       2361.50       105.1540       231.3570        67.7010         4.7570        65.3980         1.2236      0.0724881         1.3416         0.3440      1272.6130      0.0000000         1.6350       0.001000
       2362.00       106.7540       229.5880        68.3910         4.8260        66.1740         1.2421      0.0724828         1.3655         0.2890       898.8140      0.0000000         1.3960       0.002000
       2362.50       107.9450       226.3380        66.5370         4.7780        64.0920         1.2539      0.0724776         1.3870         0.2890       507.8120      0.0010000         1.3830       0.003000
       2363.00       108.7300       224.2720        64.3500         4.6660        61.6610         1.2342      0.0724723         1.3718         0.3170       326.6270      0.0010000         1.4780       0.005000
       2363.50       108.7780       224.3980        64.3840         4.5740        61.7810         1.1824      0.0724670         1.3185         0.3470       269.2210      0.0010000         1.5890       0.006000
       2364.00       107.6230       224.6700        64.2680         4.4730        62.0090         1.1201      0.0724618         1.2570         0.3850       198.9150      0.0020000         1.7200       0.009000
