~Version Information Block
VERS .                 2.00:  CWLS LOG ASCII STANDARD - VERSION 2.00
WRAP .                   NO:  One line per depth step
~Well Information Block
#MNEM.UNIT        Data Type   Information
#---------- ----------------  -----------
STRT .FT             200.00:  START DEPTH
STOP .FT            2799.00:  STOP DEPTH
STEP .FT               0.50:  STEP
NULL .              -999.25:  NULL VALUE
COMP .                     :  COMPANY
WELL .              19/08-1:  WELL
FLD  .                     :  FIELD
LOC  .                     :  LOCATION
CTRY .                     :  COUNTRY
STAT .                     :  STATE
CNTY .                     :  COUNTY
SRVC .                     :  SERVICE COMPANY
DATE .                     :  DATE
API  .                     :  API NUMBER
UWI  .                     :  UNIQUE WELL ID
~Curve Information Block
#MNEM.UNIT         API CODE   Curve Description
#---------- ----------------  -----------------
DEPTH.FT       99 995 99  1:  Depth
DTC  .US/F     99 995 99  1:  Compressional Wave Slowness
DTS  .US/F     60 530 16  1:  Shear Wave Slowness
GR   .GAPI     30 310  1  1:  Gamma Ray counts
K    .%        31 719 99  1:  Potassium
KTH  .GAPI     31 995 99  1:  Potassium Plus Thorium
RD   .OHMM      1 220 10  1:  Logarithmic Resistivity from ED  ID Depthshifted Depthshifted
RM   .OHMM                 :  Mud resistivity
RS   .OHMM      1 220  9  1:  Shallow resistivity Depthshifted
RTHK .----     31 995 99  1:  Ratio of Thorium to Potassium (TH/K)
RTHU .PPM      31 995 99  1:  Ratio of Thorium to Uranium (TH/U)
RUK  .----     31 995 99  1:  Ratio of Uranium to Potassium (U/K)
TH   .PPM      31 790 99  1:  Thorium
UR   .PPM      31 792 99  1:  Uranium
~Parameter Information Block
#MNEM.UNIT            Value   Description
#---------- ----------------  -----------
PROJECT.     geolog_uk@uxbvllapp02:  
SET  .                 WIRE:  
~Other Information Block
# 
~A       DEPTH            DTC            DTS             GR              K            KTH             RD             RM             RS           RTHK           RTHU            RUK             TH             UR 
# ...
       1877.00       140.6220       388.2890        66.5810         4.7650        65.6980         0.7539      0.0779732         0.7403         0.4510         0.0000      0.0000000         2.1470       0.000000
       1877.50       142.2070       392.5170        67.0410         4.7060        66.3850         0.8437      0.0779671         0.8169         0.4780         0.0000      0.0000000         2.2510       0.000000
       1878.00       143.6640       402.1290        68.0270         4.6780        67.3840         0.9803      0.0779610         0.9586         0.5070         0.0000      0.0000000         2.3730       0.000000
       1878.50       144.4090       426.6550        68.1590         4.6710        67.3960         1.0852      0.0779550         1.1021         0.5310         0.0000      0.0000000         2.4810       0.000000
       1879.00       145.9530       455.4850        67.2930         4.6540        66.5500         1.0887      0.0779489         1.1566         0.5450      6203.3179      0.0000000         2.5360       0.000000
       1879.50       148.3280       462.9160        65.9500         4.6170        65.2340         1.0086      0.0779428         1.1014         0.5420       929.7040      0.0010000         2.5010       0.003000
       1880.00       150.6640       451.4230        64.8980         4.5860        64.0690         0.9549      0.0779367         1.0426         0.5280       478.4290      0.0010000         2.4200       0.005000
       1880.50       147.1250       407.5720        64.9340         4.5790        64.0600         1.0358      0.0779306         1.1146         0.5110       355.3500      0.0010000         2.3400       0.007000
       1881.00       141.3620       355.6950        66.4610         4.5720        65.6550         1.2309      0.0779245         1.3306         0.4960       221.6420      0.0020000         2.2690       0.010000
       1881.50       139.4910       291.5540        68.6330         4.5580        67.7340         1.3918      0.0779185         1.5579         0.4890       143.9070      0.0030000         2.2310       0.016000
       1882.00       141.0370       265.6250        69.1020         4.5350        68.0270         1.3727      0.0779124         1.6197         0.4830        84.7890      0.0060000         2.1900       0.026000
       1882.50       145.1790       260.2120        67.6450         4.5010        66.4920         1.1695      0.0779063         1.4444         0.4700        48.0840      0.0100000         2.1140       0.044000
       1883.00       150.1230       290.1190        66.3800         4.4820        65.2210         0.9277      0.0779002         1.1623         0.4700        37.8820      0.0120000         2.1080       0.056000
       1883.50       153.7040       295.0800        66.7850         4.4800        65.6230         0.7903      0.0778941         0.9742         0.4870        37.4310      0.0130000         2.1820       0.058000
       1884.00       153.9270       289.4910        68.6350         4.5100        67.6040         0.7663      0.0778881         0.9290         0.5130        44.1890      0.0120000         2.3120       0.052000
       1884.50       155.4720       263.1880        70.8600         4.5600        69.9940         0.7894      0.0778820         0.9531         0.5280        54.2270      0.0100000         2.4090       0.044000
       1885.00       154.8170       243.7730        71.3120         4.5850        70.4790         0.8164      0.0778759         0.9867         0.5100        49.6650      0.0100000         2.3380       0.047000
       1885.50       155.5380       242.6810        69.7800         4.6030        68.9170         0.8325      0.0778698         1.0090         0.4840        41.6230      0.0120000         2.2290       0.054000
       1886.00       154.6560       258.0490        68.8800         4.6390        68.0320         0.8403      0.0778638         1.0218         0.4940        44.1680      0.0110000         2.2890       0.052000
       1886.50       155.9190       292.6030        70.0210         4.6860        69.0730         0.8500      0.0778577         1.0356         0.5370        57.1820      0.0090000         2.5180       0.044000
       1887.00       153.0110       327.6560        72.2060         4.7280        71.0710         0.8709      0.0778516         1.0578         0.6190        85.7620      0.0070000         2.9270       0.034000
       1887.50       151.6670       359.7140        73.2940         4.7580        72.1390         0.8938      0.0778456         1.0835         0.7120       172.4280      0.0040000         3.3890       0.020000
       1888.00       144.8470       374.4400        72.5360         4.7730        71.5590         0.9041      0.0778395         1.1004         0.7830       575.8050      0.0010000         3.7400       0.006000
       1888.50       141.0530       376.2400        70.5120         4.7700        69.5300         0.9041      0.0778334         1.1056         0.8320     12477.6885      0.0000000         3.9670       0.000000
       1889.00       137.4370       372.9770        68.8240         4.7670        67.6840         0.9112      0.0778274         1.1132         0.8410         0.0000      0.0000000         4.0100       0.000000
       1889.50       134.3130       366.3930        67.8400         4.7900        66.7300         0.9364      0.0778213         1.1411         0.8260         0.0000      0.0000000         3.9580       0.000000
       1890.00       131.2520       362.4750        66.8890         4.8330        65.9360         0.9652      0.0778152         1.1828         0.7930         0.0000      0.0000000         3.8310       0.000000
       1890.50       130.4660       358.0100        66.4190         4.8860        65.5370         0.9770      0.0778092         1.2051         0.7400         0.0000      0.0000000         3.6180       0.000000
       1891.00       132.4600       352.5070        67.5660         4.9470        66.6510         0.9627      0.0778031         1.1853         0.6390         0.0000      0.0000000         3.1620       0.000000
       1891.50       134.2630       347.9900        69.5250         4.9990        68.5670         0.9294      0.0777970         1.1352         0.5180         0.0000      0.0000000         2.5900       0.000000
       1892.00       135.1810       348.0770        71.0000         5.0220        70.0810         0.9007      0.0777910         1.0912         0.4350         0.0000      0.0000000         2.1850       0.000000
       1892.50       134.9820       350.6520        71.4690         5.0240        70.6550         0.8944      0.0777849         1.0789         0.3790         0.0000      0.0000000         1.9060       0.000000
       1893.00       133.3820       346.5290        70.3600         5.0220        69.6090         0.8994      0.0777789         1.0861         0.3610         0.0000      0.0000000         1.8140       0.000000
       1893.50       132.0330       339.6600        69.1290         5.0270        68.3820         0.8955      0.0777728         1.0852         0.3790         0.0000      0.0000000         1.9060       0.000000
       1894.00       131.2710       327.6640        69.4900         5.0540        68.6530         0.8778      0.0777667         1.0633         0.4040         0.0000      0.0000000         2.0400       0.000000
       1894.50       132.4330       328.6850        69.8140         5.0840        68.9050         0.8607      0.0777607         1.0330         0.4180         0.0000      0.0000000         2.1250       0.000000
       1895.00       137.4110       331.0800        68.4910         5.0750        67.7190         0.8545      0.0777546         1.0128         0.4050       569.3740      0.0010000         2.0570       0.004000
       1895.50       140.2570       338.0820        66.9660         5.0100        66.3470         0.8594      0.0777486         1.0056         0.3730       101.7620      0.0040000         1.8690       0.018000
       1896.00       141.8030       346.1760        66.4070         4.9380        65.7590         0.8636      0.0777425         1.0023         0.3370        46.3060      0.0070000         1.6660       0.036000
