~Version Information Block
VERS .                 2.00:  CWLS LOG ASCII STANDARD - VERSION 2.00
WRAP .                   NO:  One line per depth step
~Well Information Block
#MNEM.UNIT        Data Type   Information
#---------- ----------------  -----------
STRT .FT             200.00:  START DEPTH
STOP .FT            2799.00:  STOP DEPTH
STEP .FT               0.50:  STEP
NULL .              -999.25:  NULL VALUE
COMP .                     :  COMPANY
WELL .              19/08-1:  WELL
FLD  .                     :  FIELD
LOC  .                     :  LOCATION
CTRY .                     :  COUNTRY
STAT .                     :  STATE
CNTY .                     :  COUNTY
SRVC .                     :  SERVICE COMPANY
DATE .                     :  DATE
API  .                     :  API NUMBER
UWI  .                     :  UNIQUE WELL ID
~Curve Information Block
#MNEM.UNIT         API CODE   Curve Description
#---------- ----------------  -----------------
DEPTH.FT       99 995 99  1:  Depth
DTC  .US/F     99 995 99  1:  Compressional Wave Slowness
DTS  .US/F     60 530 16  1:  Shear Wave Slowness
GR   .GAPI     30 310  1  1:  Gamma Ray counts
K    .%        31 719 99  1:  Potassium
KTH  .GAPI     31 995 99  1:  Potassium Plus Thorium
RD   .OHMM      1 220 10  1:  Logarithmic Resistivity from ED  ID Depthshifted Depthshifted
RM   .OHMM                 :  Mud resistivity
RS   .OHMM      1 220  9  1:  Shallow resistivity Depthshifted
RTHK .----     31 995 99  1:  Ratio of Thorium to Potassium (TH/K)
RTHU .PPM      31 995 99  1:  Ratio of Thorium to Uranium (TH/U)
RUK  .----     31 995 99  1:  Ratio of Uranium to Potassium (U/K)
TH   .PPM      31 790 99  1:  Thorium
UR   .PPM      31 792 99  1:  Uranium
~Parameter Information Block
#MNEM.UNIT            Value   Description
#---------- ----------------  -----------
PROJECT.     geolog_uk@uxbvllapp02:  
SET  .                 WIRE:  
~Other Information Block
# 
~A       DEPTH            DTC            DTS             GR              K            KTH             RD             RM             RS           RTHK           RTHU            RUK             TH             UR 
# ...
       1311.50       136.7440       352.6500        80.3880         4.4320        80.1570         1.1296      0.0855270         1.2698         1.4670        43.8630      0.0330000         6.5030       0.148000
       1312.00       137.0300       349.5970        80.7480         4.4920        80.6580         1.0732      0.0855196         1.1967         1.4630        54.9180      0.0270000         6.5720       0.120000
       1312.50       137.9320       349.5430        80.8890         4.5870        81.0350         1.0463      0.0855123         1.1611         1.4440        88.9590      0.0160000         6.6230       0.074000
       1313.00       139.3870       352.3740        79.7550         4.6580        80.1200         1.0431      0.0855050         1.1499         1.3990       147.3210      0.0090000         6.5180       0.044000
       1313.50       141.5650       361.5280        78.1700         4.6600        78.5210         1.0511      0.0854977         1.1517         1.3130       101.8920      0.0130000         6.1200       0.060000
       1314.00       143.2770       374.9860        77.1070         4.6080        77.2010         1.0592      0.0854904         1.1565         1.2110        53.0630      0.0230000         5.5810       0.105000
       1314.50       143.8410       392.7900        76.7560         4.5690        76.6080         1.0582      0.0854830         1.1534         1.1160        36.9610      0.0300000         5.0980       0.138000
       1315.00       143.9180       406.7530        76.2250         4.5790        75.9150         1.0463      0.0854757         1.1358         0.9730        28.4310      0.0340000         4.4570       0.157000
       1315.50       144.8100       417.4680        75.5750         4.6480        75.1450         1.0269      0.0854684         1.1096         0.7770        21.3020      0.0360000         3.6130       0.170000
       1316.00       144.5540       421.1060        76.2060         4.7840        75.8090         1.0088      0.0854611         1.0853         0.6050        18.1530      0.0330000         2.8920       0.159000
       1316.50       144.7550       424.6130        77.6090         4.9120        77.3370         0.9944      0.0854538         1.0622         0.4960        17.8710      0.0280000         2.4340       0.136000
       1317.00       143.9370       425.7880        77.7660         4.9360        77.5270         0.9795      0.0854465         1.0392         0.4600        16.3670      0.0280000         2.2710       0.139000
       1317.50       145.7640       427.3920        77.0770         4.8940        76.7930         0.9681      0.0854392         1.0180         0.4770        14.8420      0.0320000         2.3350       0.157000
       1318.00       146.2910       429.2200        76.6520         4.8330        76.2470         0.9679      0.0854318         1.0025         0.5290        15.0580      0.0350000         2.5570       0.170000
       1318.50       146.8810       432.7330        76.5430         4.7670        75.9960         0.9788      0.0854245         0.9965         0.6060        16.2940      0.0370000         2.8890       0.177000
       1319.00       146.8890       435.4950        77.3220         4.7320        76.8130         0.9890      0.0854172         0.9933         0.6890        19.1760      0.0360000         3.2610       0.170000
       1319.50       147.4440       440.9780        78.2880         4.7560        77.9970         0.9873      0.0854099         0.9849         0.7550        25.5570      0.0300000         3.5900       0.140000
       1320.00       148.0370       443.7250        78.0680         4.8520        78.0590         0.9789      0.0854026         0.9705         0.8050        39.9790      0.0200000         3.9070       0.098000
       1320.50       148.4980       451.8720        77.0400         4.9710        77.2940         0.9726      0.0853953         0.9546         0.8560        68.7550      0.0120000         4.2570       0.062000
       1321.00       148.5030       454.2560        76.7050         5.0460        77.1690         0.9720      0.0853880         0.9431         0.9080       121.3980      0.0070000         4.5820       0.038000
       1321.50       148.3030       454.5390        77.1190         5.0850        77.6430         0.9756      0.0853807         0.9348         0.9510       239.8290      0.0040000         4.8370       0.020000
       1322.00       148.2050       452.4700        77.1360         5.0960        77.6210         0.9787      0.0853734         0.9286         0.9710       486.7390      0.0020000         4.9470       0.010000
       1322.50       148.2040       452.3400        75.8750         5.0520        76.2950         0.9844      0.0853661         0.9226         0.9540       294.6790      0.0030000         4.8190       0.016000
       1323.00       148.1170       450.3420        74.8700         4.9870        75.2720         0.9949      0.0853588         0.9247         0.9110       153.6810      0.0060000         4.5420       0.030000
       1323.50       147.9240       446.9660        75.8650         4.9590        76.2860         1.0249      0.0853515         0.9485         0.8730       108.8430      0.0080000         4.3290       0.040000
       1324.00       147.6080       443.1380        78.2900         5.0010        78.7620         1.0975      0.0853442         1.0097         0.8810        97.5810      0.0090000         4.4070       0.045000
       1324.50       147.1210       440.0310        80.0790         5.0650        80.5830         1.2124      0.0853369         1.1099         0.9280       106.4480      0.0090000         4.7000       0.044000
       1325.00       146.3280       440.4670        81.3430         5.0840        81.7590         1.3350      0.0853296         1.2265         0.9910       105.9480      0.0090000         5.0390       0.048000
       1325.50       145.1530       441.4090        83.4650         5.0580        83.7350         1.4156      0.0853223         1.3156         1.1320       106.9620      0.0110000         5.7240       0.054000
       1326.00       144.2950       443.9880        85.2610         4.9860        85.3900         1.4140      0.0853150         1.3339         1.3130        97.5950      0.0130000         6.5440       0.067000
       1326.50       143.0880       448.0010        85.5640         4.8580        85.4730         1.3372      0.0853078         1.2772         1.4350        63.4680      0.0230000         6.9740       0.110000
       1327.00       142.2930       448.5360        85.4200         4.6970        85.0210         1.2396      0.0853005         1.1880         1.5140        43.4510      0.0350000         7.1090       0.164000
       1327.50       142.3160       444.3390        85.4490         4.5360        84.6710         1.1641      0.0852932         1.1086         1.5610        32.3080      0.0480000         7.0830       0.219000
       1328.00       143.7420       436.0480        84.4890         4.4250        83.4550         1.1236      0.0852859         1.0595         1.5730        26.3000      0.0600000         6.9590       0.265000
       1328.50       145.5860       420.0790        82.2320         4.3730        81.0320         1.1110      0.0852786         1.0442         1.4670        21.7400      0.0680000         6.4170       0.295000
       1329.00       147.9660       403.5640        78.7080         4.4230        77.4980         1.1055      0.0852713         1.0430         1.2380        19.3010      0.0640000         5.4760       0.284000
       1329.50       150.4490       395.3380        76.2330         4.5420        75.2420         1.0897      0.0852641         1.0349         1.0590        20.5900      0.0510000         4.8100       0.234000
       1330.00       153.1460       407.5220        77.4400         4.7010        76.9250         1.0663      0.0852568         1.0132         1.0200        28.9080      0.0350000         4.7940       0.166000
       1330.50       155.5890       430.7720        80.8540         4.8670        81.0210         1.0441      0.0852495         0.9875         1.0900        62.4390      0.0170000         5.3040       0.085000
