~Version Information Block
VERS .                 2.00:  CWLS LOG ASCII STANDARD - VERSION 2.00
WRAP .                   NO:  One line per depth step
~Well Information Block
#MNEM.UNIT        Data Type   Information
#---------- ----------------  -----------
STRT .FT             200.00:  START DEPTH
STOP .FT            2799.00:  STOP DEPTH
STEP .FT               0.50:  STEP
NULL .              -999.25:  NULL VALUE
COMP .                     :  COMPANY
WELL .              19/08-1:  WELL
FLD  .                     :  FIELD
LOC  .                     :  LOCATION
CTRY .                     :  COUNTRY
STAT .                     :  STATE
CNTY .                     :  COUNTY
SRVC .                     :  SERVICE COMPANY
DATE .                     :  DATE
API  .                     :  API NUMBER
UWI  .                     :  UNIQUE WELL ID
~Curve Information Block
#MNEM.UNIT         API CODE   Curve Description
#---------- ----------------  -----------------
DEPTH.FT       99 995 99  1:  Depth
DTC  .US/F     99 995 99  1:  Compressional Wave Slowness
DTS  .US/F     60 530 16  1:  Shear Wave Slowness
GR   .GAPI     30 310  1  1:  Gamma Ray counts
K    .%        31 719 99  1:  Potassium
KTH  .GAPI     31 995 99  1:  Potassium Plus Thorium
RD   .OHMM      1 220 10  1:  Logarithmic Resistivity from ED  ID Depthshifted Depthshifted
RM   .OHMM                 :  Mud resistivity
RS   .OHMM      1 220  9  1:  Shallow resistivity Depthshifted
RTHK .----     31 995 99  1:  Ratio of Thorium to Potassium (TH/K)
RTHU .PPM      31 995 99  1:  Ratio of Thorium to Uranium (TH/U)
RUK  .----     31 995 99  1:  Ratio of Uranium to Potassium (U/K)
TH   .PPM      31 790 99  1:  Thorium
UR   .PPM      31 792 99  1:  Uranium
~Parameter Information Block
#MNEM.UNIT            Value   Description
#---------- ----------------  -----------
PROJECT.     geolog_uk@uxbvllapp02:  
SET  .                 WIRE:  
~Other Information Block
# 
~A       DEPTH            DTC            DTS             GR              K            KTH             RD             RM             RS           RTHK           RTHU            RUK             TH             UR 
# ...
       1194.50       152.7870      -999.2500        80.5680         4.4410        76.5520         1.9418      0.0872763         1.7082         0.9970        65.9950      0.0150000         4.4280       0.067000
       1195.00       152.2480      -999.2500        80.4690         4.4480        77.3380         1.9141      0.0872687         1.6910         0.8730        44.0230      0.0200000         3.8820       0.088000
       1195.50       152.7950      -999.2500        80.0710         4.4480        76.6650         1.8406      0.0872610         1.6276         0.7960        31.5050      0.0250000         3.5420       0.112000
       1196.00       154.1300      -999.2500        78.9050         4.4260        74.8490         1.7590      0.0872534         1.5524         0.7430        22.1940      0.0330000         3.2870       0.148000
       1196.50       155.3800      -999.2500        78.7670         4.3630        74.1580         1.7158      0.0872458         1.5107         0.6970        14.9440      0.0470000         3.0400       0.203000
       1197.00       156.4470      -999.2500        80.2610         4.2760        75.0060         1.7228      0.0872382         1.5124         0.6530        10.0630      0.0650000         2.7930       0.278000
       1197.50       157.6910      -999.2500        81.0350         4.2310        75.3870         1.7484      0.0872305         1.5356         0.5970         7.7260      0.0770000         2.5240       0.327000
       1198.00       159.0160      -999.2500        80.1940         4.2180        74.5550         1.7528      0.0872229         1.5461         0.5450         6.6200      0.0820000         2.2990       0.347000
       1198.50       159.2670      -999.2500        79.0020         4.1900        73.6060         1.7340      0.0872153         1.5344         0.5400         6.3170      0.0850000         2.2630       0.358000
       1199.00       158.9570      -999.2500        77.0800         4.1610        72.2280         1.7248      0.0872077         1.5249         0.5890         7.2770      0.0810000         2.4500       0.337000
       1199.50       158.2870      -999.2500        75.2560         4.1510        70.9940         1.7439      0.0872001         1.5393         0.6600         9.3700      0.0700000         2.7380       0.292000
       1200.00       157.1560      -999.2500        75.7120         4.1550        71.6960         1.7785      0.0871925         1.5699         0.7510        12.3960      0.0610000         3.1190       0.252000
       1200.50       155.1470      -999.2500        76.8000         4.2110        72.9180         1.8064      0.0871848         1.5974         0.8480        17.4220      0.0490000         3.5690       0.205000
       1201.00       152.7300      -999.2500        76.5590         4.3380        72.7570         1.8171      0.0871772         1.6117         0.8980        26.3540      0.0340000         3.8940       0.148000
       1201.50       150.5380      -999.2500        76.6320         4.5100        72.8650         1.8162      0.0871696         1.6157         0.8970        42.2270      0.0210000         4.0470       0.096000
       1202.00       148.9700      -999.2500        77.6220         4.7190        74.3090         1.8223      0.0871620         1.6250         0.8730        86.2740      0.0100000         4.1210       0.048000
       1202.50       149.9180      -999.2500        77.9890         4.9050        75.4060         1.8383      0.0871544         1.6386         0.8510       319.3090      0.0030000         4.1730       0.013000
       1203.00       152.4050      -999.2500        78.3710         5.0420        76.0470         1.8508      0.0871468         1.6445         0.8290      3715.2639      0.0000000         4.1780       0.001000
       1203.50       154.5880      -999.2500        80.1610         5.1910        77.5810         1.8493      0.0871392         1.6369         0.7910         0.0000      0.0000000         4.1050       0.000000
       1204.00       154.6190      -999.2500        82.4120         5.3240        79.6490         1.8346      0.0871316         1.6188         0.7550         0.0000      0.0000000         4.0210       0.000000
       1204.50       154.1180      -999.2500        83.1440         5.3900        80.3460         1.8122      0.0871240         1.5962         0.7490         0.0000      0.0000000         4.0400       0.000000
       1205.00       154.2750      -999.2500        82.3400         5.3900        79.5980         1.7974      0.0871164         1.5787         0.7750         0.0000      0.0000000         4.1790       0.000000
       1205.50       155.2520      -999.2500        81.2430         5.3170        78.7470         1.7825      0.0871088         1.5644         0.8100      6132.7300      0.0000000         4.3050       0.001000
       1206.00       156.6460      -999.2500        81.0040         5.1940        78.6440         1.7494      0.0871012         1.5359         0.8400       516.9510      0.0020000         4.3640       0.008000
       1206.50       157.0520      -999.2500        80.6240         5.0230        77.9270         1.6982      0.0870936         1.4906         0.8660       147.4330      0.0060000         4.3500       0.030000
       1207.00       158.3630      -999.2500        79.0210         4.7900        75.8270         1.6461      0.0870860         1.4472         0.8520        63.0730      0.0140000         4.0830       0.065000
       1207.50       159.1020      -999.2500        77.6700         4.6370        74.3000         1.6085      0.0870784         1.4195         0.8000        44.2740      0.0180000         3.7100       0.084000
       1208.00       160.2700      -999.2500        78.0680         4.6420        74.7580         1.5924      0.0870708         1.4116         0.7600        45.1650      0.0170000         3.5280       0.078000
       1208.50       161.4560      -999.2500        78.4280         4.7370        75.0920         1.5982      0.0870632         1.4173         0.7610        52.6080      0.0140000         3.6050       0.069000
       1209.00       161.4890      -999.2500        77.4520         4.9040        74.5990         1.6189      0.0870556         1.4315         0.7790        83.3680      0.0090000         3.8220       0.046000
       1209.50       161.7100      -999.2500        76.3410         5.0910        74.6600         1.6490      0.0870480         1.4538         0.7880       218.6780      0.0040000         4.0120       0.018000
       1210.00       161.8780      -999.2500        75.6730         5.2540        75.1080         1.6818      0.0870404         1.4786         0.7910      1110.7860      0.0010000         4.1530       0.004000
       1210.50       161.8490      -999.2500        74.6610         5.3710        74.5790         1.6958      0.0870328         1.4918         0.7860     40138.1172      0.0000000         4.2200       0.000000
       1211.00       161.5580      -999.2500        74.6950         5.4000        74.6480         1.6835      0.0870253         1.4813         0.7550       924.7950      0.0010000         4.0790       0.004000
       1211.50       161.1990      -999.2500        76.9090         5.3520        76.7110         1.6549      0.0870177         1.4538         0.6920       304.9230      0.0020000         3.7010       0.012000
       1212.00       160.9890      -999.2500        78.7490         5.2900        78.4120         1.6213      0.0870101         1.4221         0.6490       207.0220      0.0030000         3.4310       0.017000
       1212.50       161.3350      -999.2500        78.5660         5.2210        78.2710         1.5837      0.0870025         1.3883         0.6540       176.4710      0.0040000         3.4120       0.019000
       1213.00       162.1760      -999.2500        78.3470         5.1410        78.2220         1.5448      0.0869949         1.3525         0.6690       162.1620      0.0040000         3.4380       0.021000
       1213.50       163.7250      -999.2500        78.1370         5.0690        78.1500         1.5202      0.0869874         1.3273         0.6810       152.3980      0.0040000         3.4540       0.023000
